avnav_server 0.8.0
!AIVDM,2,2,0,A,88888888880,2*24
!AIVDM,1,1,,A,19NSBI0uj40p?IBO?gN`<nU`0UPt,0*48
!AIVDM,2,1,1,A,539g=WT00000@S;S;L0P4q<E=@4AB1=A84i=DpA50hR44t0Ht0Tm4PC4mCQ?,0*25
!AIVDM,2,2,1,A,R2A11CTiA@0,2*7B
!AIVDM,1,1,,A,13AbQ:0PA=0pJw8O?8s0qPcd00Ru,0*3F
!AIVDM,1,1,,A,13BEnV001qPsUd@OHuL9TWab0HO;,0*02
$GPRMC,121452.000,A,5440.2998,N,01301.0806,E,7.50,120.94,310713,,,A*66
!AIVDM,1,1,,A,139g=g0P1EPt6efO==4@Dgwb25Pp,0*0F
!AIVDM,1,1,,A,339g=WP01FPt8O8O=hQH:6ed21s@,0*50
!AIVDM,1,1,,A,B39`Wj0000?0BCWkWBlgSwrUkP06,0*21
!AIVDM,1,1,,A,839g=WPj2eLLMMfL00jHV@O53h00,0*4B
$GPRMC,121453.000,A,5440.2988,N,01301.0838,E,7.85,119.45,310713,,,A*65
!AIVDM,1,1,,A,B39cHl00@P>ro8Wl;g18cws5kP06,0*23
!AIVDM,1,1,,A,15@D6v00220uihrOJF>Bij=f05Pp,0*12
$GPRMC,121454.000,A,5440.2977,N,01301.0871,E,7.96,118.26,310713,,,A*69
!AIVDM,1,1,,A,14RPB@002<0tLPlOFDf2PR1d85Pp,0*7A
!AIVDM,1,1,,A,33@NF:3006Pr:j`OC0Ft<HQf2P00,0*6C
!AIVDM,1,1,,A,4020thAumwd>oPvQIdO>O5G00HPh,0*41
$GPRMC,121455.000,A,5440.2967,N,01301.0906,E,8.14,113.98,310713,,,A*63
!AIVDM,1,1,,A,155VsJ001<0qj<fOE2Ta?WOf2D0R,0*5C
!AIVDM,1,1,,A,19NWwf@1jSPuhj4OItTBnRCj0<0r,0*42
$GPRMC,121456.000,A,5440.2959,N,01301.0941,E,7.73,112.23,310713,,,A*61
!AIVDM,1,1,,A,139HODgP000t=STONJDP0?wd08R;,0*35
$GPRMC,121457.000,A,5440.2949,N,01301.0974,E,7.45,119.43,310713,,,A*6F
$GPRMC,121458.000,A,5440.2938,N,01301.1006,E,7.73,117.63,310713,,,A*62
!AIVDM,1,1,,A,139M?F000iPsOphOBVtaC7cj0PRN,0*4B
$GPRMC,121459.000,A,5440.2929,N,01301.1040,E,8.28,118.07,310713,,,A*6D
!AIVDM,1,1,,A,133oAl002V0ribVOERsBjjT405Pt,0*06
!AIVDM,1,1,,A,13uS;4002h0puMROAC7@oP`000Sc,0*18
!AIVDM,1,1,,A,139Iu2002dPv7L8OFqJ=:bOn080G,0*29
!AIVDM,1,1,,A,139L7KP0010saw>O9LeQS9H200SH,0*22
!AIVDM,1,1,,A,15Sj<v0wAPPpn;HOAUja8GB20H0`,0*4D
$GPRMC,121500.000,A,5440.2918,N,01301.1077,E,8.80,116.05,310713,,,A*68
!AIVDM,1,1,,A,33@NF:3006Pr:j>OC0HL>pP22Q8i,0*3B
!AIVDM,1,1,,A,13urfp002aPpTnHO@1T1mQOn0H0t,0*4E
!AIVDM,1,1,,A,E>j9dpAcTW2@30a6h10V:4QpacP0Lr6@?WMUP30HHKvP10,4*6C
!AIVDM,1,1,,A,402R3Wiumwd?10tgkLOgcAQ00<3=,0*27
$GPRMC,121501.000,A,5440.2906,N,01301.1116,E,9.34,116.07,310713,,,A*6C
!AIVDM,1,1,,A,4020tgAumwd?2PvQIdO>O5G00D00,0*26
!AIVDM,1,1,,A,14R4E<002t0pGqnO?lh2<ih40@1Q,0*3D
!AIVDM,1,1,,A,13ab:J001jPpSVRO>rSQoQR6081h,0*71
$GPRMC,121502.000,A,5440.2895,N,01301.1157,E,9.60,113.55,310713,,,A*62
!AIVDM,1,1,,A,E>j9dpQcTW2@30a6h10V:4QpW2P0M3:J?`DD000003vP10,4*69
!AIVDM,1,1,,A,139g4oPP1OPtVQ>O?@AWo?v620RO,0*6B
!AIVDM,1,1,,A,13Kri:3001PsCi@OF5qpiWGP0<0i,0*44
$GPRMC,121503.000,A,5440.2885,N,01301.1199,E,9.59,112.65,310713,,,A*68
!AIVDM,1,1,,A,13nlHh0Oii0pukTO=E@RsRD40T00,0*63
!AIVDM,1,1,,A,14SDuF001q0t0rhOGJW2dR>:2<0K,0*49
!AIVDM,1,1,,A,139K`fPu1JPvH1ROB42@1c4:2@32,0*67
!AIVDM,1,1,,A,4025bpiumwd?4Pnp@nOP4Ni025Pt,0*21
$GPRMC,121504.000,A,5440.2874,N,01301.1241,E,9.21,112.07,310713,,,A*6C
!AIVDM,2,1,2,A,539g=g400000@c?7S<0Tq<Dj0PT@@Dq<DD0000150`S43t00d0`000000000,0*1F
!AIVDM,2,2,2,A,20000<@0000,2*58
!AIVDM,1,1,,A,4020tUAumwd?6Pq?G8O:se7000S:,0*2E
$GPRMC,121505.000,A,5440.2864,N,01301.1280,E,8.47,112.99,310713,,,A*67
!AIVDM,1,1,,A,839g=g0j2eLLMLMd<0jHR@O54400,0*4A
!AIVDM,1,1,,A,4020tbiumwd?7Pt3BfO4gjW0084<,0*7E
!AIVDM,1,1,,A,14RPB@002<0tLnPOFEN2Sj0:8D0W,0*03
!AIVDM,1,1,,A,339g=WPOiGPt8F2O=gGp>Fj>20tP,0*63
$GPRMC,121506.000,A,5440.2856,N,01301.1316,E,7.66,111.13,310713,,,A*66
!AIVDM,1,1,,A,139ftAU017Pt6>jO<v`P5c>>2D0V,0*18
!AIVDM,1,1,,A,14SP4B001A0uM6pOCVcrDHL@0D0l,0*0B
$GPRMC,121507.000,A,5440.2850,N,01301.1348,E,6.87,109.69,310713,,,A*60
!AIVDM,1,1,,A,13M3IV001u0qk:FOCH>j:AdB084v,0*50
!AIVDM,1,1,,A,139G580P010swupO>GJFjOv>0851,0*5C
!AIVDM,1,1,,A,13A8tf0P@2PqlDlO?7t288<B085=,0*47
!AIVDM,1,1,,A,33@NF:3006Pr:ibOC0JdC8PB2Pph,0*43
!AIVDM,1,1,,A,19NWwf@vBSPui@HOIu;2ojBD05Pt,0*1D
!AIVDM,1,1,,A,139M?F000iPsOjROBVtqHob>0VcD,0*40
$GPRMC,121508.000,A,5440.2843,N,01301.1378,E,6.62,111.10,310713,,,A*62
$GPRMC,121509.000,A,5440.2837,N,01301.1408,E,7.04,111.48,310713,,,A*6C
!AIVDM,1,1,,A,13uqt6002bPpSl`OBv3HA6dD0D1B,0*1D
$GPRMC,121510.000,A,5440.2830,N,01301.1440,E,7.34,111.61,310713,,,A*67
!AIVDM,1,1,,A,14chPV001g0pcuTOAUtq>7Jd20Ss,0*21
!AIVDM,1,1,,A,139Iu2002cPv7?`OFsG=:bNF0H7>,0*2D
!AIVDM,1,1,,A,D02R3Wil4Nfp00O6D0,4*36
$GPRMC,121511.000,A,5440.2823,N,01301.1474,E,7.48,110.52,310713,,,A*69
!AIVDM,1,1,,A,13BEnV001qPsU:lOHtHaTW`J00SW,0*0C
!AIVDM,1,1,,A,133oAl002W0rj6jOESWBjBTL0D0N,0*32
!AIVDM,1,1,,A,139g=g0P1FPt6hvO=>m@AOvJ25Pt,0*4B
$GPRMC,121512.000,A,5440.2816,N,01301.1507,E,7.39,108.95,310713,,,A*6D
!AIVDM,1,1,,A,13AbQ:001>0pK8PO?:O0t0dL0H7u,0*63
!AIVDM,1,1,,A,13urfp01BaPpU<@O@381mQNF0H83,0*6C
!AIVDM,1,1,,A,339g=WPOiGPt8B0O=fpH?FlJ21uh,0*20
!AIVDM,1,1,,A,13uS;4002f0pub2OAEHhihTJ05Pt,0*69
$GPRMC,121513.000,A,5440.2809,N,01301.1542,E,7.93,112.81,310713,,,A*6D
!AIVDM,1,1,,A,33@NF:3006Pr:iBOC0LtF`PN2P00,0*3C
!AIVDM,1,1,,A,14R4E<002u0pHH>O?n>B<QhN0<0t,0*64
!AIVDM,1,1,,A,33AsCH3Oh60vItlO:F:SkIDN011i,0*01
$GPRMC,121514.000,A,5440.2800,N,01301.1577,E,8.76,116.83,310713,,,A*67
!AIVDM,1,1,,A,4020thAumwd??PvQIdO>O5G00D00,0*24
!AIVDM,1,1,,A,B39hun00@@?2<?WkM2m`GwWUkP06,0*52
!AIVDM,2,1,3,A,53ku2EP2;57t=4q@000DAD58B0E=<8E8LE80001B9HI8860a0ABhC2CRCQlP,0*59
!AIVDM,2,2,3,A,A0000000000,2*56
$GPRMC,121515.000,A,5440.2788,N,01301.1615,E,9.10,117.98,310713,,,A*64
!AIVDM,1,1,,A,139HODgP000t=STONJDP0?vL0L0S,0*62
$GPRMC,121516.000,A,5440.2776,N,01301.1656,E,9.76,117.07,310713,,,A*67
!AIVDM,1,1,,A,155VsJ01i<0qipfOE1Wa>oNP2H:J,0*5A
$GPRMC,121517.000,A,5440.2764,N,01301.1696,E,8.93,116.05,310713,,,A*60
$GPRMC,121518.000,A,5440.2753,N,01301.1731,E,7.57,120.43,310713,,,A*67
!AIVDM,1,1,,A,14RPB@002<0tM@FOFFDRTB0V8@;`,0*28
$GPRMC,121519.000,A,5440.2741,N,01301.1760,E,7.31,127.35,310713,,,A*67
$GPRMC,121520.000,A,5440.2731,N,01301.1790,E,7.71,119.59,310713,,,A*66
!AIVDM,1,1,,A,19NWwf@1BSPuidnOIuh2p2Bd0@<c,0*62
!AIVDM,1,1,,A,402R3Wiumwd?E0tgkLOgcAQ00H<m,0*78
$GPRMC,121521.000,A,5440.2721,N,01301.1822,E,7.30,115.00,310713,,,A*65
!AIVDM,1,1,,A,139g4oPP1OPtVFTO?>Foqgvf2L0B,0*52
$GPRMC,121522.000,A,5440.2710,N,01301.1852,E,6.66,121.69,310713,,,A*69
!AIVDM,1,1,,A,13uqt6002bPpSS0OBt1HBVdf08=t,0*75
!AIVDM,1,1,,A,13Kri:3001PsChROF5tpiWD@0D0i,0*39
$GPRMC,121523.000,A,5440.2699,N,01301.1879,E,6.78,125.41,310713,,,A*60
!AIVDM,1,1,,A,139Iu2002dPv738OFuD=:bNf0H>F,0*2A
!AIVDM,1,1,,A,133oAl002W0rjS>OETCBiBTl0@>a,0*16
!AIVDM,1,1,,A,13uS;4002f0pukjOAGEhfPPh0H>k,0*2A
!AIVDM,1,1,,A,4025bpiumwd?HPnp@nOP4Ni02<3u,0*36
$GPRMC,121524.000,A,5440.2689,N,01301.1908,E,7.56,119.71,310713,,,A*60
!AIVDM,1,1,,A,14SDuF001q0t1M8OGKj2g2<l28?2,0*5E
!AIVDM,1,1,,A,13nlHh0PAj0pvG<O=EuRsRBh0T00,0*7F
!AIVDM,1,1,,A,139K`fP11NPvH1LOB69h0c4l2D0c,0*19
!AIVDM,1,1,,A,13urfp002`PpUR8O@4d1mQNf0D0v,0*30
!AIVDM,1,1,,A,4020tUAumwd?JPq?G8O:se7000S:,0*52
$GPRMC,121525.000,A,5440.2681,N,01301.1939,E,7.82,112.13,310713,,,A*6D
!AIVDM,1,1,,A,14R4E<002u0pHirO?oOR;Qhl08?j,0*59
!AIVDM,1,1,,A,139ftAUOi7Pt6@<O=04P=@6n2<0W,0*0E
!AIVDM,1,1,,A,4020tbiumwd?KPt3BfO4gjW008?r,0*47
!AIVDM,1,1,,A,339g=WPPAGPt89DO=en8@Fjn210h,0*6D
$GPRMC,121526.000,A,5440.2673,N,01301.1975,E,8.11,111.42,310713,,,A*69
!AIVDM,1,1,,A,139G580P010swurO>GJFt?vl0<0G,0*15
!AIVDM,1,1,,A,13M3IV001v0qkahOCIlj:Adr08@U,0*12
$GPRMC,121527.000,A,5440.2662,N,01301.2010,E,7.99,119.12,310713,,,A*63
!AIVDM,1,1,,A,14SP4B001@0uLehOCVPJFHJr0D0m,0*7C
!AIVDM,1,1,,A,33@NF:3005Pr:hNOC0PtG`Np2Q1@,0*7F
$GPRMC,121528.000,A,5440.2650,N,01301.2044,E,8.23,122.77,310713,,,A*69
!AIVDM,1,1,,A,33AsCH3Oh60vIv4O:F:Sv9br0000,0*75
$GPRMC,121529.000,A,5440.2638,N,01301.2077,E,8.19,123.69,310713,,,A*61
$GPRMC,121530.000,A,5440.2625,N,01301.2110,E,8.39,123.91,310713,,,A*60
!AIVDM,1,1,,A,14RPB@002<0tMW4OFG52RR0t8@Bg,0*17
$GPRMC,121531.000,A,5440.2612,N,01301.2144,E,8.75,121.78,310713,,,A*69
!AIVDM,1,1,,A,19NSBI01j40p>kPO?bRp6nS00PRc,0*78
!AIVDM,1,1,,A,14chPV001g0pcP`OATOI?7KH2L0b,0*10
!AIVDM,1,1,,A,13BEnV001qPsTadOHsBaTWa20<0B,0*50
$GPRMC,121532.000,A,5440.2599,N,01301.2180,E,8.71,121.34,310713,,,A*6E
!AIVDM,1,1,,A,139g=g0P1EPt6klO=@i@<gw22@Cb,0*77
!AIVDM,1,1,,A,19NWwf@1jSPuj9FOIvEBpjC428Cl,0*61
!AIVDM,1,1,,A,339g=WP01GPt84VO=eA`A6k421s@,0*54
$GPRMC,121533.000,A,5440.2585,N,01301.2215,E,8.55,120.48,310713,,,A*61
!AIVDM,1,1,,A,13AbQ:0PA<0pKApO?<30t0e605Pt,0*32
!AIVDM,1,1,,A,15@D6v00230uju4OJH1RfB=608DQ,0*15
$GPRMC,121534.000,A,5440.2574,N,01301.2250,E,8.14,117.76,310713,,,A*65
!AIVDM,1,1,,A,33@NF:3P@5Pr:h2OC0RdG`O62P00,0*36
!AIVDM,1,1,,A,4020thAumwd?SPvQIdO>O5G00D00,0*48
!AIVDM,1,1,,A,155VsJ0v1<0qiVfOE0h9>WM62<0U,0*39
$GPRMC,121535.000,A,5440.2565,N,01301.2282,E,7.57,117.95,310713,,,A*6E
!AIVDM,2,1,4,A,53AbQ:026Ch@uM5S:20<4hu8UE>222222222220l=8I;95woo@PEQA3iDQH8,0*7D
!AIVDM,2,2,4,A,88888888880,2*20
!AIVDM,1,1,,A,139Iu2002cPv6n`OFwb=:bO600Rp,0*7E
!AIVDM,1,1,,A,133oAl002V0rjwfOEU0Ri2U:00Rs,0*20
$GPRMC,121536.000,A,5440.2556,N,01301.2313,E,7.26,116.44,310713,,,A*6F
!AIVDM,1,1,,A,14R4E<002u0pI;NO?pjB:ii:0HFH,0*59
$GPRMC,121537.000,A,5440.2546,N,01301.2344,E,7.40,119.76,310713,,,A*63
!AIVDM,1,1,,A,139HODgP000t=STONJDP0?w60D0U,0*17
$GPRMC,121538.000,A,5440.2535,N,01301.2375,E,7.50,118.47,310713,,,A*68
!AIVDM,1,1,,A,15Sj<v00iPPpmN4OASVI87C@0D1@,0*14
$GPRMC,121539.000,A,5440.2525,N,01301.2408,E,8.01,117.68,310713,,,A*6C
!AIVDM,1,1,,A,139L7KPOh00sawBO9Lek19MB0@H2,0*44
