avnav_server 0.8.0
!AIVDM,1,1,,B,13uSbD002JPpe?VOC?5AiQHH0<0W,0*67
$GPRMC,082913.000,A,5455.5854,N,01229.1706,E,4.95,140.48,310713,,,A*6C
!AIVDM,1,1,,B,B39cHl008P>ItT7mjnMKCwVUkP06,0*47
!AIVDM,1,1,,B,139MHT002APpvmROEwLpA6`F0<0b,0*1B
$GPRMC,082914.000,A,5455.5844,N,01229.1722,E,5.00,133.91,310713,,,A*61
!AIVDM,1,1,,B,4025bpiumw`M>Pnp@nOP4Ni0251l,0*27
!AIVDM,1,1,,B,13B9>0?000Pq4QPOLL3P090N2<0@,0*6C
!AIVDM,1,1,,B,13u:Tn002KPq8kjODEn1ai@N0D0n,0*0E
$GPRMC,082915.000,A,5455.5835,N,01229.1739,E,4.67,131.40,310713,,,A*62
!AIVDM,1,1,,B,4020tUAumw`M@Pq?G8O:se700@9S,0*5E
$GPRMC,082916.000,A,5455.5826,N,01229.1755,E,4.65,139.25,310713,,,A*60
!AIVDM,1,1,,B,13@ng3@000Po858OJ=U<u`o408D2,0*46
!AIVDM,1,1,,B,1779s?0029Prj;HOG6Hq`7hR0D0c,0*1C
!AIVDM,1,1,,B,38JC3<002b0suatOWfGcLaBT00N1,0*45
!AIVDM,1,1,,B,139GPj002B0q3eDOEeh`U6pP0@:K,0*65
$GPRMC,082917.000,A,5455.5816,N,01229.1770,E,4.88,137.12,310713,,,A*6C
$GPRMC,082918.000,A,5455.5807,N,01229.1787,E,4.81,130.89,310713,,,A*67
!AIVDM,1,1,,B,13@nknh0020qM:tOK7<eMHR`0<0L,0*39
$GPRMC,082919.000,A,5455.5797,N,01229.1804,E,4.80,138.30,310713,,,A*6F
!AIVDM,1,1,,B,14QsE4P0290sWLdOE3IjWj2b08<@,0*27
$GPRMC,082920.000,A,5455.5787,N,01229.1819,E,4.75,134.88,310713,,,A*6D
$GPRMC,082921.000,A,5455.5778,N,01229.1835,E,4.65,137.48,310713,,,A*6C
!AIVDM,1,1,,B,13LKfR001IPqpd@OPOiFtEPf2H=R,0*74
$GPRMC,082922.000,A,5455.5768,N,01229.1851,E,4.73,134.06,310713,,,A*62
$GPRMC,082923.000,A,5455.5760,N,01229.1868,E,4.55,129.80,310713,,,A*67
$GPRMC,082924.000,A,5455.5750,N,01229.1883,E,4.69,143.27,310713,,,A*68
!AIVDM,1,1,,B,15@D6v001v0p=MfO=IGPU@Pj0@>i,0*50
!AIVDM,1,1,,B,38JC3<002d0suG<OWg0cQIDl0000,0*2F
!AIVDM,1,1,,B,?3S>Rb0pBiMTD00,2*40
$GPRMC,082925.000,A,5455.5740,N,01229.1898,E,4.85,133.28,310713,,,A*68
!AIVDM,1,1,,B,13uSbD002JPpeSVOC@Lil1Jh00S3,0*69
!AIVDM,1,1,,B,139MHT002APpvV>OEuapA6`h00Rr,0*33
!AIVDM,1,1,,B,D02R3Wia8Nfp00O6D0,4*34
!AIVDM,1,1,,B,13fqc40vApPq0qTOAA3R<1bp051l,0*4D
$GPRMC,082926.000,A,5455.5731,N,01229.1915,E,4.81,134.19,310713,,,A*68
!AIVDM,1,1,,B,B39jJCP0Bp>P7<WobOdMKweUoP06,0*30
!AIVDM,1,1,,B,13u:Tn002KPq950ODG=1b1@l00SF,0*1C
!AIVDM,1,1,,B,139HODgP000t=STONJDP0?vj00RH,0*42
$GPRMC,082927.000,A,5455.5722,N,01229.1931,E,4.45,134.14,310713,,,A*68
!AIVDM,1,1,,B,B3aI:ch0?P><HS7mp=EtCwf5kP06,0*77
!AIVDM,1,1,,B,?3S>Rb0pBiMTD00,2*40
$GPRMC,082928.000,A,5455.5713,N,01229.1947,E,4.76,137.69,310713,,,A*6D
!AIVDM,1,1,,B,18JC3<0Oje0su@4OWg@;RqFt051l,0*55
!AIVDM,1,1,,B,139GPj002C0q3NBOEdI`RVnn08A?,0*59
$GPRMC,082929.000,A,5455.5703,N,01229.1963,E,4.71,132.97,310713,,,A*68
!AIVDM,1,1,,B,13@nicP0000q3nLOLIB7tS:p0`Ar,0*02
$GPRMC,082930.000,A,5455.5695,N,01229.1979,E,4.58,135.22,310713,,,A*67
!AIVDM,1,1,,B,?3S>Rb0rl@70D00,2*5B
!AIVDM,1,1,,B,402R3Wiumw`MO0tgjhOgcDQ00@Bd,0*58
$GPRMC,082931.000,A,5455.5686,N,01229.1995,E,4.69,134.03,310713,,,A*66
$GPRMC,082932.000,A,5455.5677,N,01229.2011,E,4.36,135.31,310713,,,A*67
!AIVDM,1,1,,B,?3S>Rb0rl@70D00,2*5B
$GPRMC,082933.000,A,5455.5669,N,01229.2026,E,4.24,129.66,310713,,,A*61
$GPRMC,082934.000,A,5455.5661,N,01229.2041,E,4.33,133.77,310713,,,A*62
!AIVDM,1,1,,B,4025bpiumw`MRPnp@nOP4Ni020S:,0*7A
!AIVDM,1,1,,B,13B9>0?000Pq4QdOLL3@09162HDo,0*1E
$GPRMC,082935.000,A,5455.5653,N,01229.2056,E,4.44,134.34,310713,,,A*64
$GPRMC,082936.000,A,5455.5644,N,01229.2072,E,4.61,136.08,310713,,,A*6D
!AIVDM,1,1,,B,13@ng3@000Po84vOJ=SdVpod00RI,0*51
!AIVDM,1,1,,B,1779s?0029PriUTOG5<9`7i:051l,0*44
!AIVDM,1,1,,B,13uSbD002JPpeoVOCAlAiQI808FC,0*07
$GPRMC,082937.000,A,5455.5636,N,01229.2087,E,4.36,129.12,310713,,,A*64
!AIVDM,1,1,,B,?3S>Rb0l=cGLD00,2*3B
!AIVDM,1,1,,B,139MHT002APpvIdOEt=8A6a60@FR,0*78
!AIVDM,1,1,,B,H3`mrnTUDBE5847@9jhqp01h0220,0*10
$GPRMC,082938.000,A,5455.5628,N,01229.2103,E,4.25,134.70,310713,,,A*63
!AIVDM,1,1,,B,13u:Tn002KPq9IDODHlAb1A>051l,0*24
$GPRMC,082939.000,A,5455.5620,N,01229.2118,E,4.43,132.90,310713,,,A*68
!AIVDM,1,1,,B,13@nknh0010qM:lOK7=uP8KB0<0L,0*65
!AIVDM,1,1,,B,14QsE4P0290s`2NOE4TRW23B051l,0*33
$GPRMC,082940.000,A,5455.5612,N,01229.2133,E,4.48,135.26,310713,,,A*6F
!AIVDM,1,1,,B,18JC3<002g0stiVOWhJc`IID00Rr,0*2A
!AIVDM,1,1,,B,139GPj002B0q3<fOEbk8RVo@0@HM,0*5E
$GPRMC,082941.000,A,5455.5604,N,01229.2149,E,4.50,125.47,310713,,,A*6B
!AIVDM,1,1,,B,13LKfR001IPqpeFOPMm6v5SD20S4,0*26
!AIVDM,1,1,,B,?3S>Rb0jG1npD00,2*00
$GPRMC,082942.000,A,5455.5596,N,01229.2165,E,4.12,137.05,310713,,,A*6D
$GPRMC,082943.000,A,5455.5587,N,01229.2179,E,4.67,135.05,310713,,,A*61
!AIVDM,1,1,,B,?3S>Rb0jG1npD00,2*00
!AIVDM,1,1,,B,34STQL0022PtclROJId9f7iF07kC,0*01
$GPRMC,082944.000,A,5455.5579,N,01229.2196,E,4.57,123.48,310713,,,A*6B
!AIVDM,1,1,,B,13S>Rb00210rTN<OF`faSoaJ0@Jv,0*28
$GPRMC,082945.000,A,5455.5571,N,01229.2212,E,4.24,139.78,310713,,,A*61
$GPRMC,082946.000,A,5455.5562,N,01229.2226,E,4.65,138.20,310713,,,A*6E
!AIVDM,1,1,,B,139HODgP000t=STONJDP0?wH00S?,0*17
$GPRMC,082947.000,A,5455.5553,N,01229.2242,E,4.74,130.45,310713,,,A*64
$GPRMC,082948.000,A,5455.5544,N,01229.2259,E,4.80,134.55,310713,,,A*69
$GPRMC,082949.000,A,5455.5535,N,01229.2275,E,4.56,130.05,310713,,,A*6A
!AIVDM,1,1,,B,139MHT002APpv<BOEraHA6aN0@MQ,0*71
!AIVDM,1,1,,B,13uSbD002JPpf<nOCCEikQIR0@Mc,0*57
$GPRMC,082950.000,A,5455.5526,N,01229.2291,E,4.45,139.52,310713,,,A*63
!AIVDM,1,1,,B,13@nicP0000q3nLOLI?WtS9P0`N6,0*77
!AIVDM,1,1,,B,13u:Tn002KPq9bNODJ;QaQAT051l,0*49
!AIVDM,1,1,,B,402R3Wiumw`Mk0tgjjOgcE1000S:,0*20
$GPRMC,082951.000,A,5455.5517,N,01229.2307,E,4.85,130.28,310713,,,A*66
!AIVDM,1,1,,B,18JC3<002j0stGbOWiLccaGb00S`,0*2A
$GPRMC,082952.000,A,5455.5510,N,01229.2325,E,4.72,119.94,310713,,,A*66
!AIVDM,1,1,,B,139GPj002A0q2ufOEaLHPVoV00Rc,0*11
$GPRMC,082953.000,A,5455.5502,N,01229.2342,E,4.66,142.29,310713,,,A*68
!AIVDM,1,1,,B,13Kri:3001PsEolOF<S`iWE>0<0k,0*3E
!AIVDM,1,1,,B,14SFG<001N0qnq`OEdsaCGUf00SB,0*55
$GPRMC,082954.000,A,5455.5492,N,01229.2358,E,5.00,132.78,310713,,,A*6E
!AIVDM,1,1,,B,4025bpiumw`MnPnp@nOP4Ni02L3j,0*0A
!AIVDM,1,1,,B,13B9>0?000Pq4QVOLL3;Hq1f28Pd,0*58
$GPRMC,082955.000,A,5455.5484,N,01229.2376,E,4.84,122.44,310713,,,A*67
!AIVDM,1,1,,B,D02R3WhRlNfq6DO6D0,4*21
$GPRMC,082956.000,A,5455.5476,N,01229.2393,E,4.79,141.39,310713,,,A*6F
!AIVDM,1,1,,B,13@ng3@000Po84vOJ=R;eHnL0D09,0*4B
!AIVDM,1,1,,B,1779s?002:PrhwfOG409`Gij051l,0*7B
$GPRMC,082957.000,A,5455.5465,N,01229.2408,E,5.14,139.28,310713,,,A*6C
$GPRMC,082958.000,A,5455.5456,N,01229.2426,E,5.01,123.08,310713,,,A*62
$GPRMC,082959.000,A,5455.5448,N,01229.2444,E,4.73,135.22,310713,,,A*63
!AIVDM,1,1,,B,13@nknh0010qM:pOK7>P08F20H0<,0*46
!AIVDM,1,1,,B,13L?T1001E0s2P4OW>k3ijv0051l,0*33
$GPRMC,083000.000,A,5455.5438,N,01229.2461,E,5.18,138.38,310713,,,A*6D
!AIVDM,1,1,,B,E>j9dp0;TW2@30a6h10V:4QpW;P@Lr5n?WwP8N3kkhuP20,4*7F
$GPRMC,083001.000,A,5455.5428,N,01229.2478,E,4.99,127.84,310713,,,A*64
!AIVDM,1,1,,B,?3S>Rb0l=c=hD00,2*65
!AIVDM,1,1,,B,13uSbD002JPpfPlOCDgikQH20H1U,0*3F
!AIVDM,1,1,,B,E>j9dpAcTW2@30a6h10V:4QpacP0Lr6@?WMUP30HHKvP10,4*6F
!AIVDM,1,1,,B,E>j9dpQcTW2@30a6h10V:4QpW2P0M3:J?`DD000003vP10,4*6A
$GPRMC,083002.000,A,5455.5419,N,01229.2496,E,4.95,132.74,310713,,,A*62
!AIVDM,1,1,,B,139MHT002APputvOEpnHA6`0051p,0*54
!AIVDM,1,1,,B,33u:Tn0OjKPq9uLODKaicAD400aA,0*15
$GPRMC,083003.000,A,5455.5410,N,01229.2513,E,4.93,135.88,310713,,,A*64
!AIVDM,1,1,,B,13LKfR001IPqpf6OPKeFtUP8282S,0*38
!AIVDM,1,1,,B,15@D6v001u0p=i4O=NPPU0P80<<M,0*4D
!AIVDM,1,1,,B,139GPj002A0q2fjOE`5HPVn4051p,0*60
!AIVDM,1,1,,B,?3S>Rb0l=c=hD00,2*65
$GPRMC,083004.000,A,5455.5400,N,01229.2530,E,4.98,133.40,310713,,,A*6A
!AIVDM,1,1,,B,13S>Rb00210rSu4OFWV9So`8083=,0*7A
!AIVDM,1,1,,B,18JC3<002l0sspNOWje;cIH<0D1d,0*29
!AIVDM,1,1,,B,4020thAumw`N5PvQIdO>O5G00H3M,0*2A
$GPRMC,083005.000,A,5455.5391,N,01229.2548,E,5.02,128.57,310713,,,A*65
$GPRMC,083006.000,A,5455.5383,N,01229.2566,E,4.95,132.90,310713,,,A*66
!AIVDM,1,1,,B,B3`jf?00;0=t<P7oOLFg?wSUkP06,0*20
!AIVDM,1,1,,B,33u:Tn0OjKPq:5TODL@1dAD>00Vh,0*23
!AIVDM,1,1,,B,139HODgP000t=STONJDP0?v80<0a,0*57
!AIVDM,1,1,,B,13fqc4001pPq1nHOAD4j:ibB084h,0*23
$GPRMC,083007.000,A,5455.5373,N,01229.2583,E,5.06,136.89,310713,,,A*64
!AIVDM,1,1,,B,B3mmInP000>@wg7o6V;4OwT5oP06,0*2A
$GPRMC,083008.000,A,5455.5363,N,01229.2600,E,5.23,132.79,310713,,,A*6E
$GPRMC,083009.000,A,5455.5355,N,01229.2619,E,4.95,124.97,310713,,,A*69
$GPRMC,083010.000,A,5455.5346,N,01229.2636,E,4.64,136.92,310713,,,A*66
!AIVDM,1,1,,B,13@nicP0000q3o4OLI?WtS:D0d0<,0*69
!AIVDM,1,1,,B,402R3Wiumw`N;0tgjhOgcDi00L3=,0*33
!AIVDM,1,1,,B,33u:Tn002KPq:<8ODLfAfQFF0000,0*61
$GPRMC,083011.000,A,5455.5337,N,01229.2652,E,5.01,134.16,310713,,,A*6F
!AIVDM,1,1,,B,B3u?7j0008>@muWo80k87wV5oP06,0*54
$GPRMC,083012.000,A,5455.5328,N,01229.2670,E,4.80,128.30,310713,,,A*63
!AIVDM,1,1,,B,B39cHl0080>J037mjG5PowVUkP06,0*61
!AIVDM,1,1,,B,13uSbD002JPpflROCF7AjQHJ088B,0*50
$GPRMC,083013.000,A,5455.5319,N,01229.2687,E,4.90,136.48,310713,,,A*69
!AIVDM,1,1,,B,14SFG<001N0qnQNOEclaBoTN051p,0*16
!AIVDM,1,1,,B,139MHT002APpuhjOEoIpA6`F088R,0*04
$GPRMC,083014.000,A,5455.5310,N,01229.2703,E,5.02,132.41,310713,,,A*6D
!AIVDM,1,1,,B,4025bpiumw`N>Pnp@nOP4Ni020S:,0*15
!AIVDM,1,1,,B,13B9>0?0000q4QfOLL2cFpvN2896,0*0A
!AIVDM,1,1,,B,33u:Tn0OjKPq:BbODM=1gQFN00TQ,0*44
$GPRMC,083015.000,A,5455.5300,N,01229.2720,E,5.10,137.95,310713,,,A*63
$GPRMC,083016.000,A,5455.5290,N,01229.2737,E,5.18,134.74,310713,,,A*6A
!AIVDM,1,1,,B,13@ng3@000Po84fOJ=Q<hHo4051p,0*12
!AIVDM,1,1,,B,1779s?0029PrhIrOG2lab7hR0@:E,0*4C
!AIVDM,1,1,,B,139GPj002A0q2M8OEVNpPVnN0<0a,0*0F
!AIVDM,1,1,,B,?3S>Rb0lU?vPD00,2*22
$GPRMC,083017.000,A,5455.5280,N,01229.2755,E,5.14,133.50,310713,,,A*63
$GPRMC,083018.000,A,5455.5270,N,01229.2773,E,5.11,133.71,310713,,,A*61
!AIVDM,1,1,,B,13@nknh0020qM;<OK7=U28N`08;D,0*55
!AIVDM,1,1,,B,33u:Tn002KPq:GVODMSQh1HT00UP,0*27
!AIVDM,1,1,,B,13L?T1001E0s2p<OW>VShRvV0@;i,0*63
$GPRMC,083019.000,A,5455.5260,N,01229.2790,E,5.29,139.76,310713,,,A*6A
!AIVDM,1,1,,B,13cA0L01iq0r3KPOcR70bPNV0@<<,0*29
!AIVDM,1,1,,B,14QsE4P0290sa><OE6qBVR2b051p,0*27
!AIVDM,1,1,,B,?3S>Rb0lU?vPD00,2*22
$GPRMC,083020.000,A,5455.5249,N,01229.2808,E,5.41,134.34,310713,,,A*60
$GPRMC,083021.000,A,5455.5239,N,01229.2825,E,4.99,135.96,310713,,,A*64
!AIVDM,1,1,,B,13LKfR001IPqpfdOPIw6v5Pf2D00,0*2B
$GPRMC,083022.000,A,5455.5229,N,01229.2841,E,5.05,139.97,310713,,,A*6D
!AIVDM,1,1,,B,33u:Tn002KPq:N@ODN1Qi1Hd0000,0*6D
!AIVDM,1,1,,B,?3S>Rb0p2fAtD00,2*13
$GPRMC,083023.000,A,5455.5217,N,01229.2857,E,5.20,140.28,310713,,,A*6B
$GPRMC,083024.000,A,5455.5206,N,01229.2873,E,5.44,139.42,310713,,,A*6A
!AIVDM,1,1,,B,15@D6v001v0p=sDO=Q@hTPPj0<<M,0*20
!AIVDM,1,1,,B,13S>Rb00210rSH<OFVCaRGVj0<0l,0*18
!AIVDM,1,1,,B,139SI@002b0shTjO`FRpOFjl08>w,0*04
!AIVDM,1,1,,B,?3S>Rb0p2fAtD00,2*13
!AIVDM,1,1,,B,13uSbD002IPpg6bOCGIiiQHh0@?B,0*31
$GPRMC,083025.000,A,5455.5195,N,01229.2890,E,5.34,138.18,310713,,,A*66
!AIVDM,1,1,,B,139MHT002APpuQNOEma8A6`h0@?T,0*2C
!AIVDM,1,1,,B,139HODgP000t=STONJDP0?vf0<0a,0*09
!AIVDM,1,1,,B,D02R3Wia8Nfp00O6D0,4*34
!AIVDM,1,1,,B,13fqc4001pPq2BbOAENB:ibn00SM,0*13
$GPRMC,083026.000,A,5455.5184,N,01229.2906,E,5.26,144.39,310713,,,A*60
!AIVDM,1,1,,B,13u:Tn002KPq:VRODNWAiiHn0<0n,0*13
$GPRMC,083027.000,A,5455.5172,N,01229.2923,E,5.76,139.39,310713,,,A*60
!AIVDM,1,1,,B,B3aI:ch0>@><DgWmoAmrWwf5kP06,0*67
$GPRMC,083028.000,A,5455.5160,N,01229.2941,E,5.32,137.93,310713,,,A*66
$GPRMC,083029.000,A,5455.5149,N,01229.2957,E,5.19,144.71,310713,,,A*6A
!AIVDM,1,1,,B,13@nicP0000q3nhOLI?WtS:p0T00,0*3C
$GPRMC,083030.000,A,5455.5137,N,01229.2973,E,5.59,138.08,310713,,,A*6C
!AIVDM,1,1,,B,402R3Wiumw`NO0tgjjOgcDi00<3H,0*40
$GPRMC,083031.000,A,5455.5126,N,01229.2990,E,5.15,139.84,310713,,,A*6D
$GPRMC,083032.000,A,5455.5113,N,01229.3005,E,5.61,145.37,310713,,,A*6C
!AIVDM,2,1,8,B,539SI@42<a<p@q0T000pTi>0PthLE9=<tp00000t1Bk>>5wgN>E4PEQCA1O?,0*4C
!AIVDM,2,2,8,B,U4QC31@Qh00,2*17
$GPRMC,083033.000,A,5455.5101,N,01229.3022,E,5.74,136.65,310713,,,A*6C
!AIVDM,1,1,,B,14SFG<001N0qn9LOEbf9CGU60@D7,0*38
!AIVDM,2,1,9,B,53LKfR42<HQpuc;7?H1HTpL61<4HU8000000001I7`C49uwm09jjAC81SlQ1,0*7C
!AIVDM,2,2,9,B,H44m3P00000,2*68
$GPRMC,083034.000,A,5455.5090,N,01229.3041,E,5.49,136.85,310713,,,A*67
!AIVDM,1,1,,B,4025bpiumw`NRPnp@nOP4Ni02HDf,0*4A
!AIVDM,1,1,,B,13B9>0?0000q4QnOLL2P08w62D0?,0*0A
!AIVDM,1,1,,B,13@ng3@000Po84JOJ=QKCpo`0<09,0*4F
$GPRMC,083035.000,A,5455.5078,N,01229.3058,E,5.70,143.99,310713,,,A*6D
$GPRMC,083036.000,A,5455.5066,N,01229.3077,E,5.75,132.45,310713,,,A*6E
!AIVDM,1,1,,B,?3S>Rb0j5jqPD00,2*16
!AIVDM,1,1,,B,1779s?0029Prgl2OG1`IWWi:00S;,0*5A
$GPRMC,083037.000,A,5455.5056,N,01229.3096,E,5.52,134.70,310713,,,A*66
!AIVDM,1,1,,B,139SI@002b0sh@HO`Db`OFk>051p,0*46
!AIVDM,1,1,,B,139MHT002APpuEBOEl:HA6a60<0b,0*04
!AIVDM,1,1,,B,?3S>Rb0j5jqPD00,2*16
$GPRMC,083038.000,A,5455.5045,N,01229.3115,E,5.64,137.36,310713,,,A*65
!AIVDM,1,1,,B,13u:Tn002KPq:r`ODP0QkAI>00SH,0*5E
$GPRMC,083039.000,A,5455.5034,N,01229.3133,E,5.51,132.68,310713,,,A*6E
!AIVDM,1,1,,B,13@nknh0010qM:nOK7?Kv`OB08Go,0*71
!AIVDM,1,1,,B,?3S>Rb0jHnD0D00,2*3A
!AIVDM,1,1,,B,14QsE4P0290sal8OE832WB3B00Sl,0*06
!AIVDM,1,1,,B,13cA0L01iq0r3`0OcTM0bPO>08H0,0*77
!AIVDM,1,1,,B,18JC3<002p0srSrOWn6se9GB0@H8,0*12
$GPRMC,083040.000,A,5455.5024,N,01229.3153,E,5.58,131.34,310713,,,A*64
!AIVDM,1,1,,B,139GPj002A0q1tNOESQpU6q>0<0b,0*50
$GPRMC,083041.000,A,5455.5014,N,01229.3173,E,5.50,128.94,310713,,,A*6E
!AIVDM,1,1,,B,13LKfR001IPqpgnOPH36smSD2L00,0*11
$GPRMC,083042.000,A,5455.5005,N,01229.3194,E,5.45,127.40,310713,,,A*66
!AIVDM,1,1,,B,?3S>Rb0jHnD0D00,2*3A
$GPRMC,083043.000,A,5455.4995,N,01229.3214,E,5.42,127.64,310713,,,A*6C
!AIVDM,1,1,,B,?3S>Rb0uTNKPD00,2*76
$GPRMC,083044.000,A,5455.4986,N,01229.3234,E,5.38,130.92,310713,,,A*69
!AIVDM,1,1,,B,?3S>Rb0uTNKPD00,2*76
!AIVDM,1,1,,B,13S>Rb00210rRmPOFU3aPGUJ0<0q,0*1F
$GPRMC,083045.000,A,5455.4976,N,01229.3254,E,5.36,127.88,310713,,,A*62
!AIVDM,1,1,,B,13fqc4001pPq2hTOAFuR;1cP0HKT,0*38
$GPRMC,083046.000,A,5455.4967,N,01229.3274,E,5.46,126.92,310713,,,A*6E
!AIVDM,1,1,,B,139HODgP000t=STONJDP0?wH0@Kj,0*2A
$GPRMC,083047.000,A,5455.4958,N,01229.3295,E,5.33,129.77,310713,,,A*6A
$GPRMC,083048.000,A,5455.4949,N,01229.3314,E,5.34,127.43,310713,,,A*63
!AIVDM,1,1,,B,?3S>Rb0p2FNTD00,2*1C
$GPRMC,083049.000,A,5455.4940,N,01229.3334,E,5.21,127.16,310713,,,A*6D
!AIVDM,1,1,,B,139MHT002APpu7nOEjSpA6aN0<0b,0*75
$GPRMC,083050.000,A,5455.4932,N,01229.3354,E,5.10,128.82,310713,,,A*66
!AIVDM,1,1,,B,13@nicP0000q3n8OLI?WtS9T0T00,0*4B
!AIVDM,1,1,,B,13u:Tn002KPq;=8ODQB1l1IT00SR,0*5C
!AIVDM,1,1,,B,402R3Wiumw`Nk0tgjnOgcDi00HNJ,0*6B
!AIVDM,1,1,,B,?3S>Rb0jKi=pD00,2*07
$GPRMC,083051.000,A,5455.4923,N,01229.3373,E,5.18,126.96,310713,,,A*61
!AIVDM,1,1,,B,139GPj002A0q1cvOER38U6qV0L0b,0*4C
$GPRMC,083052.000,A,5455.4914,N,01229.3393,E,5.35,131.08,310713,,,A*66
!AIVDM,1,1,,B,?3S>Rb0jKi=pD00,2*07
!AIVDM,1,1,,B,18JC3<0PBq0sr4@OWoIcda?d0@OT,0*54
$GPRMC,083053.000,A,5455.4905,N,01229.3412,E,5.28,129.11,310713,,,A*64
!AIVDM,1,1,,B,14SFG<001N0qmh@OEaSqC7Uf0L11,0*47
$GPRMC,083054.000,A,5455.4896,N,01229.3431,E,5.15,131.14,310713,,,A*6B
!AIVDM,1,1,,B,4025bpiumw`NnPnp@nOP4Ni02HPL,0*48
!AIVDM,1,1,,B,13B9>0?000Pq4QHOLL3rfpwf251p,0*1E
!AIVDM,1,1,,B,?3S>Rb18m?EPD00,2*7C
$GPRMC,083055.000,A,5455.4887,N,01229.3450,E,5.13,128.93,310713,,,A*6C
!AIVDM,1,1,,B,D02R3WhRlNfq6DO6D0,4*21
$GPRMC,083056.000,A,5455.4878,N,01229.3469,E,5.13,128.40,310713,,,A*6B
!AIVDM,1,1,,B,13@ng3@000Po84@OJ=QKAHnL0@8G,0*58
!AIVDM,1,1,,B,1779s?0029Prg>8OG0Ka`7ij00Sg,0*5B
$GPRMC,083057.000,A,5455.4869,N,01229.3487,E,5.07,130.91,310713,,,A*6A
!AIVDM,1,1,,B,B3`mrnP0?p>E1:7nr@jEcwu5oP06,0*33
!AIVDM,1,1,,B,?3S>Rb18m?EPD00,2*7C
$GPRMC,083058.000,A,5455.4860,N,01229.3505,E,5.16,133.12,310713,,,A*6F
$GPRMC,083059.000,A,5455.4850,N,01229.3523,E,5.17,131.45,310713,,,A*68
!AIVDM,1,1,,B,?3S>Rb0rl@70D00,2*5B
!AIVDM,1,1,,B,13@nknh0010qM:dOK7@;i`L20D0K,0*37
!AIVDM,1,1,,B,13L?T1001E0s3e0OW>:kj2v000Sh,0*32
$GPRMC,083100.000,A,5455.4841,N,01229.3542,E,5.21,128.38,310713,,,A*65
$GPRMC,083101.000,A,5455.4831,N,01229.3561,E,5.12,132.53,310713,,,A*64
!AIVDM,1,1,,B,13uSbD002IPph3BOCKdikQH20D0b,0*49
!AIVDM,1,1,,B,?3S>Rb0rl@70D00,2*5B
!AIVDM,1,1,,B,139MHT002APptq:OEhrpA6`000S>,0*09
$GPRMC,083102.000,A,5455.4821,N,01229.3579,E,5.31,135.10,310713,,,A*6E
!AIVDM,1,1,,B,13u:Tn002KPq;QJODRbQlQH400S:,0*68
$GPRMC,083103.000,A,5455.4812,N,01229.3597,E,4.97,126.90,310713,,,A*68
!AIVDM,1,1,,B,13LKfR001KPqphhOPEonuUP8251t,0*6E
!AIVDM,1,1,,B,15@D6v001w0p>=PO=VVPRhN:082V,0*30
!AIVDM,1,1,,B,139GPj002A0q1KrOEPU8RVn600SL,0*2D
!AIVDM,1,1,,B,?3S>Rb2GawsTD00,2*76
$GPRMC,083104.000,A,5455.4803,N,01229.3616,E,5.13,128.65,310713,,,A*6C
!AIVDM,1,1,,B,18JC3<002p0sqV2OWpLsU98<0@3D,0*06
$GPRMC,083105.000,A,5455.4794,N,01229.3635,E,5.13,135.04,310713,,,A*66
!AIVDM,1,1,,B,?3S>Rb2GawsTD00,2*76
$GPRMC,083106.000,A,5455.4783,N,01229.3653,E,5.31,132.00,310713,,,A*60
!AIVDM,1,1,,B,139HODgP000t=STONJDP0?v:084d,0*50
$GPRMC,083107.000,A,5455.4774,N,01229.3672,E,5.22,124.40,310713,,,A*6B
$GPRMC,083108.000,A,5455.4766,N,01229.3692,E,5.05,127.82,310713,,,A*61
$GPRMC,083109.000,A,5455.4757,N,01229.3711,E,5.05,130.75,310713,,,A*66
!AIVDM,1,1,,B,?3S>Rb0jHnD0D00,2*3A
$GPRMC,083110.000,A,5455.4748,N,01229.3730,E,5.22,128.75,310713,,,A*6F
!AIVDM,2,1,0,B,539HODP00000@;?W?T0HTpv380000000000000000h66640Ht00000000000,0*05
!AIVDM,2,2,0,B,00000000000,2*27
!AIVDM,1,1,,B,13@nicP0000q3mlOLI?WtS:@0`6V,0*5F
!AIVDM,1,1,,B,402R3Wiumw`O;0tgjpOgcDQ00H6v,0*58
$GPRMC,083111.000,A,5455.4739,N,01229.3749,E,5.22,126.22,310713,,,A*6A
!AIVDM,1,1,,B,?3S>Rb0jHnD0D00,2*3A
!AIVDM,1,1,,B,13Q;5n@01p0p8T2O?q:93W@J287P,0*38
$GPRMC,083112.000,A,5455.4731,N,01229.3769,E,4.98,126.25,310713,,,A*64
!AIVDM,1,1,,B,B39cHl007@>J3tWmisMS3wV5kP06,0*4A
!AIVDM,1,1,,B,13uSbD002IPphEJOCLtijQHH051t,0*3D
$GPRMC,083113.000,A,5455.4722,N,01229.3788,E,5.05,131.98,310713,,,A*6D
!AIVDM,1,1,,B,14SFG<001N0qmIJOE`QIBoTN00S;,0*33
!AIVDM,1,1,,B,139MHT002APptcfOEgFpA6`F051t,0*27
$GPRMC,083114.000,A,5455.4713,N,01229.3806,E,4.98,128.25,310713,,,A*6A
!AIVDM,1,1,,B,4025bpiumw`O>Pnp@nOP4Ni02@90,0*04
!AIVDM,1,1,,B,?3S>Rb0lRdq0D00,2*19
!AIVDM,1,1,,B,13B9>0?000Pq4QbOLL3:h`vN251t,0*4F
!AIVDM,1,1,,B,13u:Tn002KPq;oHODT:iliHN0<0p,0*55
$GPRMC,083115.000,A,5455.4704,N,01229.3825,E,5.14,128.58,310713,,,A*63
$GPRMC,083116.000,A,5455.4696,N,01229.3844,E,4.94,127.07,310713,,,A*61
!AIVDM,1,1,,B,?3S>Rb0lRdq0D00,2*19
!AIVDM,1,1,,B,1779s?002:Prf`FOFw?q`WhR0<0a,0*6B
!AIVDM,1,1,,B,139GPj002A0q1:HOENwHPVnP08:K,0*28
$GPRMC,083117.000,A,5455.4687,N,01229.3862,E,4.78,133.48,310713,,,A*68
$GPRMC,083118.000,A,5455.4677,N,01229.3879,E,5.18,133.59,310713,,,A*65
!AIVDM,1,1,,B,13@nknh0010qM:TOK7@t88J`051t,0*5A
!AIVDM,1,1,,B,?3S>Rb2GawsTD00,2*76
!AIVDM,2,1,1,B,5779s?02?>QiI8HON2060h60l58TpF2222222217C@A==60a0E20CH5R@H3S,0*6D
!AIVDM,2,2,1,B,jp888888880,2*3C
$GPRMC,083119.000,A,5455.4668,N,01229.3897,E,5.25,130.36,310713,,,A*6E
!AIVDM,1,1,,B,14QsE4P0280sbwfOE:G2WR2b00SK,0*21
$GPRMC,083120.000,A,5455.4659,N,01229.3916,E,5.09,131.02,310713,,,A*66
!AIVDM,1,1,,B,?3S>Rb2GawsTD00,2*76
$GPRMC,083121.000,A,5455.4650,N,01229.3934,E,4.97,130.30,310713,,,A*68
!AIVDM,1,1,,B,13LKfR001LPqpiTOPD5FuURf2@=R,0*24
$GPRMC,083122.000,A,5455.4641,N,01229.3951,E,4.90,134.26,310713,,,A*6C
$GPRMC,083123.000,A,5455.4632,N,01229.3969,E,5.07,127.39,310713,,,A*61
!AIVDM,1,1,,B,15@D6v001w0p>F`O=aBhS0Nj08>i,0*5A
$GPRMC,083124.000,A,5455.4623,N,01229.3988,E,4.92,132.27,310713,,,A*6F
!AIVDM,1,1,,B,13S>Rb00210rQhhOFRNaLoTj08>v,0*43
!AIVDM,1,1,,B,13uSbD002IPphbbOCNNAjQHj0<0c,0*1F
$GPRMC,083125.000,A,5455.4614,N,01229.4005,E,4.91,131.10,310713,,,A*65
!AIVDM,1,1,,B,139MHT002APptNDOEek8A6`f0<0c,0*70
!AIVDM,1,1,,B,D02R3Wia8Nfp00O6D0,4*34
$GPRMC,083126.000,A,5455.4605,N,01229.4022,E,4.92,133.93,310713,,,A*69
!AIVDM,1,1,,B,B39jJCP0BH>PM<7ocvDL;weUoP06,0*7B
!AIVDM,1,1,,B,13fqc4001pPq3eJOAIwB;Qdn0<0g,0*52
!AIVDM,1,1,,B,13u:Tn002KPq<;fODUSAliJn08@F,0*08
$GPRMC,083127.000,A,5455.4596,N,01229.4039,E,4.97,131.82,310713,,,A*6C
!AIVDM,1,1,,B,B3aI:ch0>h><A87mnI5u3wf5kP06,0*47
!AIVDM,1,1,,B,18JC3<0PBq0spbNOWr?;K8vr0@A4,0*7A
$GPRMC,083128.000,A,5455.4587,N,01229.4058,E,5.11,125.55,310713,,,A*64
!AIVDM,1,1,,B,139GPj002A0q0sNOEM`8PVnn00S4,0*22
!AIVDM,1,1,,B,?3S>Rb0lB?;PD00,2*78
$GPRMC,083129.000,A,5455.4579,N,01229.4077,E,4.84,132.88,310713,,,A*62
!AIVDM,1,1,,B,13@nicP0000q3mlOLIB7tS:t0PSo,0*1A
$GPRMC,083130.000,A,5455.4569,N,01229.4094,E,5.12,134.58,310713,,,A*63
!AIVDM,1,1,,B,402R3Wiumw`OO0tgk0OgcD1008Bd,0*1B
!AIVDM,1,1,,B,?3S>Rb0lB?;PD00,2*78
$GPRMC,083131.000,A,5455.4561,N,01229.4111,E,4.78,125.05,310713,,,A*63
$GPRMC,083132.000,A,5455.4553,N,01229.4129,E,4.81,132.42,310713,,,A*69
!AIVDM,1,1,,B,?3S>Rb0jG1npD00,2*00
$GPRMC,083133.000,A,5455.4544,N,01229.4147,E,4.90,126.89,310713,,,A*64
!AIVDM,1,1,,B,14SFG<001O0qm1BOEWKIC7U60<11,0*2B
$GPRMC,083134.000,A,5455.4536,N,01229.4165,E,4.79,127.73,310713,,,A*65
!AIVDM,1,1,,B,4025bpiumw`ORPnp@nOP4Ni02D40,0*61
!AIVDM,1,1,,B,13B9>0?000Pq4QjOLL3K38w62@Do,0*57
!AIVDM,1,1,,B,13@ng3@000Po846OJ=PMQHo`08Nw,0*2A
$GPRMC,083135.000,A,5455.4527,N,01229.4182,E,4.92,136.71,310713,,,A*6A
$GPRMC,083136.000,A,5455.4518,N,01229.4198,E,4.73,131.26,310713,,,A*64
!AIVDM,1,1,,B,1779s?002:Prf2POFv2qWoi:0L0b,0*36
!AIVDM,1,1,,B,13uSbD002IPphvbOCOmijQI:00SF,0*1A
$GPRMC,083137.000,A,5455.4509,N,01229.4216,E,4.72,129.15,310713,,,A*68
!AIVDM,1,1,,B,?3@nicPwHrU0D00,2*33
!AIVDM,1,1,,B,139MHT002APpt@@OEd?8CVc608FR,0*5D
$GPRMC,083138.000,A,5455.4501,N,01229.4232,E,4.72,134.83,310713,,,A*6A
!AIVDM,1,1,,B,?3S>Rb0wFCQhD00,2*49
!AIVDM,1,1,,B,?3S>Rb1AIfnPD00,2*53
$GPRMC,083139.000,A,5455.4492,N,01229.4249,E,4.89,132.62,310713,,,A*61
!AIVDM,1,1,,B,13u:Tn002KPq<P4ODVsim1K>0HGb,0*61
!AIVDM,1,1,,B,13@nknh0010qM:JOK7A;FpMB051t,0*19
!AIVDM,1,1,,B,13cA0L0vir0r47@Occp0bPO>051t,0*29
!AIVDM,2,1,2,B,53uSbD023PGI<PiD000QD<dhD8E99V0HTpp0000t2RL==5wce=U4QC31@SlQ,0*14
!AIVDM,2,2,2,B,h0000000000,2*7D
!AIVDM,1,1,,B,18JC3<0PBp0sp:lOWrvKA8oB0<1c,0*40
$GPRMC,083140.000,A,5455.4483,N,01229.4265,E,4.72,133.72,310713,,,A*65
!AIVDM,1,1,,B,13L?T1001E0s4PROW=gkhBw@08H=,0*79
!AIVDM,1,1,,B,?3S>Rb1AIfnPD00,2*53
!AIVDM,2,1,3,B,539MHT02;EiDA4iH000lD<dhDp9DNmHu90tllE950S4>>5wee>4Slm3hjh00,0*21
!AIVDM,2,2,3,B,00000000000,2*24
!AIVDM,1,1,,B,139GPj002A0q0a`OEL6HPVo>08HM,0*02
!AIVDM,1,1,,B,14QsE4P0280scWJOE;U2Wj3D0<0C,0*47
$GPRMC,083141.000,A,5455.4474,N,01229.4282,E,4.70,133.72,310713,,,A*67
!AIVDM,1,1,,B,13LKfR001MPqpjROPB26uUSD2HI4,0*68
$GPRMC,083142.000,A,5455.4465,N,01229.4298,E,4.72,136.30,310713,,,A*6E
!AIVDM,1,1,,B,?3S>Rb0p2FNTD00,2*1C
$GPRMC,083143.000,A,5455.4456,N,01229.4314,E,4.50,131.41,310713,,,A*6B
$GPRMC,083144.000,A,5455.4448,N,01229.4330,E,4.58,132.94,310713,,,A*66
!AIVDM,1,1,,B,15@D6v001w0p>OhO=ck@S@QH0D<M,0*4F
!AIVDM,1,1,,B,?3S>Rb0p2FNTD00,2*1C
!AIVDM,1,1,,B,13S>Rb00210rQ>HOFQ79LGUJ08Jv,0*6A
$GPRMC,083145.000,A,5455.4439,N,01229.4345,E,4.72,139.99,310713,,,A*6D
!AIVDM,1,1,,B,13fqc4001pPq49vOAKHR<AcN0D0h,0*5F
$GPRMC,083146.000,A,5455.4430,N,01229.4362,E,4.95,130.47,310713,,,A*61
!AIVDM,1,1,,B,139HODgP000t=STONJDP0?wH0<0`,0*27
$GPRMC,083147.000,A,5455.4421,N,01229.4378,E,4.47,134.54,310713,,,A*62
!AIVDM,1,1,,B,?3S>Rb0wNO1PD00,2*15
$GPRMC,083148.000,A,5455.4412,N,01229.4393,E,4.53,140.78,310713,,,A*60
$GPRMC,083149.000,A,5455.4402,N,01229.4408,E,4.81,136.35,310713,,,A*62
!AIVDM,1,1,,B,139MHT002APpt2lOEb``A6aN08MQ,0*12
!AIVDM,1,1,,B,13uSbD002IPpiBFOCQ=AjQIR08Mc,0*36
!AIVDM,1,1,,B,?3S>Rb0lB?;PD00,2*78
$GPRMC,083150.000,A,5455.4393,N,01229.4423,E,4.72,136.27,310713,,,A*63
!AIVDM,1,1,,B,13@nicP0000q3mPOLIB7tS;T0PSH,0*20
!AIVDM,1,1,,B,402R3Wiumw`Ok0tgk8OgcCi00D3=,0*3C
!AIVDM,1,1,,B,13u:Tn002KPq<lROD`CimQKV0D0n,0*42
$GPRMC,083151.000,A,5455.4383,N,01229.4439,E,4.58,138.18,310713,,,A*62
!AIVDM,1,1,,B,139GPj002A0q0LNOEJipQVoT0HNq,0*41
!AIVDM,1,1,,B,?3S>Rb0lB?;PD00,2*78
$GPRMC,083152.000,A,5455.4374,N,01229.4454,E,4.69,135.24,310713,,,A*62
!AIVDM,1,1,,B,33Q;5n@PAo0p7dlO?n3`w6sb20tA,0*7F
!AIVDM,2,1,4,B,53A1sP000001Q0G;SKPI8;3L000000000000000k0p3214@P11Rk2CU23k3@,0*2D
!AIVDM,2,2,4,B,00000000000,2*23
!AIVDM,1,1,,B,18JC3<002p0soWVOWsVs6`md0<1c,0*0A
$GPRMC,083153.000,A,5455.4364,N,01229.4470,E,4.57,137.36,310713,,,A*68
!AIVDM,1,1,,B,13Kri:3001PsEnnOF<PHiWE>051t,0*01
!AIVDM,1,1,,B,33A1sP50000q4;2OLM4`G:Q`0000,0*59
!AIVDM,1,1,,B,14SFG<001O0qlWtOEV@aC7Uf0HPC,0*6F
$GPRMC,083154.000,A,5455.4354,N,01229.4484,E,4.53,138.99,310713,,,A*69
!AIVDM,1,1,,B,4025bpiumw`OnPnp@nOP4Ni02D3T,0*3E
!AIVDM,1,1,,B,13B9>0?000Pq4QdOLL1r3a1f20S>,0*1B
!AIVDM,1,1,,B,?3S>Rb0pBiMTD00,2*40
$GPRMC,083155.000,A,5455.4345,N,01229.4500,E,4.98,133.96,310713,,,A*66
!AIVDM,2,1,5,B,53Q;5n@2>R;A`@MG<004p@4q@D00000000000016<@A:75wn0<EQBS1@0000,0*70
!AIVDM,2,2,5,B,00000000000,2*22
!AIVDM,1,1,,B,D02R3WhRlNfq6DO6D0,4*21
$GPRMC,083156.000,A,5455.4335,N,01229.4517,E,4.67,134.34,310713,,,A*6B
!AIVDM,1,1,,B,13@ng3@000Po84<OJ=Pu>`nL0<09,0*46
$GPRMC,083157.000,A,5455.4325,N,01229.4532,E,4.99,142.24,310713,,,A*6D
!AIVDM,1,1,,B,B3`mrnP0?H>Dm=7nqn2JGwu5oP06,0*0F
!AIVDM,1,1,,B,1779s?0029PreJjOFtja`oil0HRT,0*0F
$GPRMC,083158.000,A,5455.4316,N,01229.4548,E,4.53,128.92,310713,,,A*68
!AIVDM,1,1,,B,33Q;5n@PAo0p7RLO?mEHonp0213@,0*62
$GPRMC,083159.000,A,5455.4307,N,01229.4563,E,4.57,139.93,310713,,,A*65
!AIVDM,1,1,,B,13@nknh0000qM:FOK7@rcpN20@0<,0*36
!AIVDM,1,1,,B,13cA0L011s0r4ChOcfW0bPMn00Rh,0*61
$GPRMC,083200.000,A,5455.4298,N,01229.4578,E,4.48,133.47,310713,,,A*6A
!AIVDM,1,1,,B,13L?T1001E0s4sHOW=QkgRv20D0K,0*68
!AIVDM,1,1,,B,14QsE4P0290sd=HOE<fBWj24080s,0*28
!AIVDM,1,1,,B,139SI@002b0sf>tO`8MpNVj20819,0*11
$GPRMC,083201.000,A,5455.4289,N,01229.4594,E,4.65,132.20,310713,,,A*66
!AIVDM,1,1,,B,?3S>Rb18NmQhD00,2*21
$GPRMC,083202.000,A,5455.4279,N,01229.4610,E,4.95,140.71,310713,,,A*6B
!AIVDM,1,1,,B,139MHT002APpsklOE`m`A6`00<0b,0*76
!AIVDM,1,1,,B,13u:Tn002LPq=7FODaTAn1J40D0n,0*35
!AIVDM,1,1,,B,?3S>Rb18NmQhD00,2*21
$GPRMC,083203.000,A,5455.4269,N,01229.4625,E,4.53,137.29,310713,,,A*6A
!AIVDM,1,1,,B,13LKfR001NPqpkTOP?k6tUR820RM,0*2E
!AIVDM,1,1,,B,15@D6v00200p>`dO=fU0U0P60520,0*68
$GPRMC,083204.000,A,5455.4260,N,01229.4641,E,4.59,129.58,310713,,,A*65
!AIVDM,1,1,,B,139GPj002A0q0;4OEI;HPVn60D0W,0*13
!AIVDM,1,1,,B,13S>Rb00210rPeTOFOo9MWV800Rl,0*00
!AIVDM,1,1,,B,18JC3<0PBq0so6TOWt7K2`h<0<1c,0*7F
$GPRMC,083205.000,A,5455.4251,N,01229.4657,E,4.67,140.15,310713,,,A*6A
!AIVDM,1,1,,B,33Q;5n@PAn0p7K6O?li8hFl>2000,0*12
$GPRMC,083206.000,A,5455.4241,N,01229.4672,E,4.86,139.27,310713,,,A*6F
!AIVDM,1,1,,B,139HODgP000t=STONJDP0?v80520,0*0D
!AIVDM,1,1,,B,13fqc4001pPq4a>OALs2;QbB00S7,0*41
$GPRMC,083207.000,A,5455.4231,N,01229.4688,E,4.85,130.78,310713,,,A*6C
$GPRMC,083208.000,A,5455.4222,N,01229.4704,E,4.79,138.86,310713,,,A*6E
$GPRMC,083209.000,A,5455.4212,N,01229.4720,E,4.73,136.60,310713,,,A*66
!AIVDM,1,1,,B,?3S>Rb0l43u0D00,2*2C
$GPRMC,083210.000,A,5455.4203,N,01229.4736,E,4.57,133.32,310713,,,A*6D
!AIVDM,1,1,,B,13@nicP0000q3mPOLIB7tS:D0T00,0*2E
!AIVDM,1,1,,B,402R3Wiumw`P;0tgk8OgcCQ00D3C,0*35
$GPRMC,083211.000,A,5455.4194,N,01229.4752,E,4.84,132.04,310713,,,A*69
!AIVDM,1,1,,B,?3S>Rb0l43u0D00,2*2C
!AIVDM,1,1,,B,33Q;5n@PAo0p7BTO?l7`hFfJ215i,0*5D
$GPRMC,083212.000,A,5455.4184,N,01229.4768,E,4.68,138.22,310713,,,A*6E
!AIVDM,1,1,,B,B39cHl00:0>J6mWmiIuQOwVUkP06,0*37
!AIVDM,1,1,,B,13uSbD002IPpipNOCSlikQHH00S4,0*2C
$GPRMC,083213.000,A,5455.4175,N,01229.4784,E,4.57,131.91,310713,,,A*6E
!AIVDM,1,1,,B,14SFG<001O0qlA6OEU?IC7TN0H8H,0*25
!AIVDM,1,1,,B,139MHT002APpsV4OEWA`A6`H00Rv,0*0A
$GPRMC,083214.000,A,5455.4167,N,01229.4800,E,4.46,132.05,310713,,,A*67
!AIVDM,1,1,,B,4025bpiumw`P>Pnp@nOP4Ni02<3e,0*38
!AIVDM,1,1,,B,13B9>0?000Pq4Q`OLL1P090N20SO,0*3E
!AIVDM,1,1,,B,13u:Tn002KPq=MVODc3AnAJN089B,0*6E
$GPRMC,083215.000,A,5455.4158,N,01229.4816,E,4.56,135.99,310713,,,A*6E
$GPRMC,083216.000,A,5455.4149,N,01229.4831,E,4.58,133.53,310713,,,A*66
!AIVDM,1,1,,B,18JC3<0PBq0sn`2OWtQbv8VT0D1c,0*33
!AIVDM,1,1,,B,1779s?002:PrdnjOFsaq`GhR08:E,0*2B
!AIVDM,1,1,,B,139GPj002A0pwrtOEGd`PVnN0520,0*49
$GPRMC,083217.000,A,5455.4140,N,01229.4847,E,4.58,133.43,310713,,,A*6E
!AIVDM,1,1,,B,?3S>Rb0jIpApD00,2*60
$GPRMC,083218.000,A,5455.4131,N,01229.4863,E,4.57,134.60,310713,,,A*68
!AIVDM,1,1,,B,13@nknh0010qM:BOK7@bOHN`00So,0*25
!AIVDM,1,1,,B,13L?T1001E0s5BROW=EkjBvV08;i,0*7A
$GPRMC,083219.000,A,5455.4122,N,01229.4878,E,4.47,137.21,310713,,,A*66
!AIVDM,1,1,,B,33Q;5n@PAn0p7:TO?kLHbnT`20qh,0*0E
!AIVDM,1,1,,B,?3S>Rb0jIpApD00,2*60
$GPRMC,083220.000,A,5455.4113,N,01229.4893,E,4.63,135.32,310713,,,A*6D
!AIVDM,1,1,,B,14QsE4P0290sdi6OE=mRWB2b0D0D,0*2D
$GPRMC,083221.000,A,5455.4104,N,01229.4909,E,4.56,131.11,310713,,,A*6B
!AIVDM,1,1,,B,13bv=D002B0pc`LOAV<9;WDf0@=7,0*5C
!AIVDM,1,1,,B,13LKfR001NPqplBOP=v6uURf2<00,0*6C
$GPRMC,083222.000,A,5455.4096,N,01229.4924,E,4.23,134.77,310713,,,A*6A
!AIVDM,1,1,,B,?3S>Rb0uTNKPD00,2*76
$GPRMC,083223.000,A,5455.4087,N,01229.4939,E,4.35,138.06,310713,,,A*6A
!AIVDM,1,1,,B,15@D6v001v0p>k6O=iG@UhPj0520,0*1D
$GPRMC,083224.000,A,5455.4078,N,01229.4954,E,4.71,129.50,310713,,,A*65
!AIVDM,1,1,,B,13S>Rb00210rP9DOFNR9PG`j0520,0*20
!AIVDM,1,1,,B,13uSbD002IPpj<:OCU<AjQHh08?B,0*5A
$GPRMC,083225.000,A,5455.4070,N,01229.4971,E,4.44,132.51,310713,,,A*66
!AIVDM,1,1,,B,33Q;5n@01m0p74JO?jm8P6Rl2000,0*24
!AIVDM,1,1,,B,139MHT002APpsITOEUj`A6`f08?T,0*35
!AIVDM,1,1,,B,139HODgP000t=STONJDP0?vh0520,0*5D
!AIVDM,1,1,,B,D02R3Wia8Nfp00O6D0,4*34
$GPRMC,083226.000,A,5455.4061,N,01229.4985,E,4.38,138.36,310713,,,A*6E
!AIVDM,1,1,,B,13fqc4001pPq56fOANI2:ibn08@:,0*74
!AIVDM,1,1,,B,13u:Tn002LPq=j<ODdJinQJn0520,0*36
$GPRMC,083227.000,A,5455.4052,N,01229.5000,E,4.63,133.87,310713,,,A*65
!AIVDM,1,1,,B,?3S>Rb0wMi80D00,2*59
!AIVDM,1,1,,B,B39id=P01P>@t17o6p>hkwf5oP06,0*59
$GPRMC,083228.000,A,5455.4043,N,01229.5017,E,4.66,129.58,310713,,,A*60
!AIVDM,1,1,,B,139GPj002A0pwbnOEF=`PVnn0D0W,0*2F
!AIVDM,1,1,,B,?3S>Rb0jKqI`D00,2*7B
$GPRMC,083229.000,A,5455.4034,N,01229.5033,E,4.68,140.28,310713,,,A*61
$GPRMC,083230.000,A,5455.4024,N,01229.5048,E,4.81,138.08,310713,,,A*6E
!AIVDM,1,1,,B,13@nicP0000q3mlOLIB7tS:t0pBW,0*13
!AIVDM,1,1,,B,402R3Wiumw`PO0tgk<OgcCQ00520,0*46
$GPRMC,083231.000,A,5455.4015,N,01229.5064,E,4.90,130.40,310713,,,A*67
!AIVDM,1,1,,B,33Q;5n@01l0p6vjO?j;`FFS2212Q,0*13
!AIVDM,1,1,,B,?3S>Rb0jKqI`D00,2*7B
$GPRMC,083232.000,A,5455.4006,N,01229.5082,E,4.75,134.07,310713,,,A*62
$GPRMC,083233.000,A,5455.3997,N,01229.5098,E,4.72,136.37,310713,,,A*68
!AIVDM,1,1,,B,14SFG<001O0qkppOET9aC7U608D7,0*70
$GPRMC,083234.000,A,5455.3988,N,01229.5114,E,4.86,133.19,310713,,,A*66
!AIVDM,1,1,,B,4025bpiumw`PRPnp@nOP4Ni02@Df,0*5C
!AIVDM,1,1,,B,13B9>0?000Pq4QHOLL29ca162<0@,0*6E
$GPRMC,083235.000,A,5455.3979,N,01229.5132,E,4.97,129.82,310713,,,A*64
$GPRMC,083236.000,A,5455.3969,N,01229.5148,E,4.78,141.80,310713,,,A*66
!AIVDM,1,1,,B,?3S>Rb26Thk0D00,2*51
!AIVDM,1,1,,B,1779s?002:PrdA4OFrLa`7i:0HF@,0*76
$GPRMC,083237.000,A,5455.3960,N,01229.5163,E,4.70,135.58,310713,,,A*69
!AIVDM,1,1,,B,13uSbD002HPpjOnOCVSijQI80HFO,0*6D
!AIVDM,1,1,,B,139MHT002APps;lOETAHBVc60520,0*29
$GPRMC,083238.000,A,5455.3950,N,01229.5180,E,5.04,131.45,310713,,,A*62
!AIVDM,1,1,,B,?3S>Rb26Thk0D00,2*51
!AIVDM,1,1,,B,33Q;5n@PAl0p6oNO?iD8BnO@20w0,0*7D
$GPRMC,083239.000,A,5455.3941,N,01229.5197,E,4.92,138.51,310713,,,A*67
!AIVDM,1,1,,B,13u:Tn002LPq>6hODejinAK>0D0q,0*6F
!AIVDM,1,1,,B,13@nknh0000qM:BOK7?`I8MB00RK,0*2B
!AIVDM,1,1,,B,13cA0L01iq0r4a`Ockd0bPO>00Rg,0*72
!AIVDM,1,1,,B,18JC3<002q0smTrOWttrd`OB08H8,0*7A
$GPRMC,083240.000,A,5455.3931,N,01229.5214,E,4.96,133.43,310713,,,A*6A
!AIVDM,1,1,,B,13L?T1001E0s5ebOW=8CkRw@0520,0*63
!AIVDM,1,1,,B,?3S>Rb0l=c=hD00,2*65
!AIVDM,1,1,,B,139GPj002A0pwILOEDVpPVo@0520,0*64
!AIVDM,1,1,,B,14QsE4P0290seHdOE?4BVB3D08Ha,0*13
$GPRMC,083241.000,A,5455.3921,N,01229.5232,E,5.14,131.53,310713,,,A*66
!AIVDM,1,1,,B,13LKfR001OPqpm8OP;rnw5SD2D00,0*75
$GPRMC,083242.000,A,5455.3911,N,01229.5249,E,5.32,140.24,310713,,,A*68
!AIVDM,1,1,,B,?3S>Rb0l=c=hD00,2*65
$GPRMC,083243.000,A,5455.3900,N,01229.5266,E,4.89,136.05,310713,,,A*67
!AIVDM,1,1,,B,14STQL0022PtVcpOJ@fIf7iF0520,0*48
$GPRMC,083244.000,A,5455.3891,N,01229.5283,E,5.14,128.40,310713,,,A*69
!AIVDM,1,1,,B,4020thAumw`PePvQIdO>O5G00@Jq,0*29
!AIVDM,1,1,,B,?3S>Rb0p2FNTD00,2*1C
$GPRMC,083245.000,A,5455.3882,N,01229.5302,E,5.24,133.60,310713,,,A*69
$GPRMC,083246.000,A,5455.3872,N,01229.5320,E,5.15,136.11,310713,,,A*64
!AIVDM,1,1,,B,139HODgP000t=STONJDP0?wH08Kj,0*52
$GPRMC,083247.000,A,5455.3863,N,01229.5337,E,5.02,133.37,310713,,,A*64
!AIVDM,1,1,,B,?3S>Rb0p2FNTD00,2*1C
$GPRMC,083248.000,A,5455.3854,N,01229.5355,E,4.94,130.37,310713,,,A*66
$GPRMC,083249.000,A,5455.3845,N,01229.5372,E,5.01,132.83,310713,,,A*62
!AIVDM,1,1,,B,139MHT002@PprtjOER`HFVgN0520,0*3F
!AIVDM,1,1,,B,13uSbD002HPpjmHOC`2ijQIR0520,0*22
!AIVDM,1,1,,B,?3S>Rb0jKqbPD00,2*60
$GPRMC,083250.000,A,5455.3836,N,01229.5390,E,4.94,129.80,310713,,,A*66
!AIVDM,1,1,,B,139SI@002b0se0fO`15`NVk`08N1,0*4B
!AIVDM,1,1,,B,13@nicP0000q3mlOLIB7tS;T0t0=,0*2E
!AIVDM,1,1,,B,402R3Wiumw`Pk0tgk>OgcCA00@NJ,0*03
!AIVDM,1,1,,B,13u:Tn002LPq>KFODg:QnAKV0@NS,0*66
$GPRMC,083251.000,A,5455.3826,N,01229.5407,E,5.01,139.25,310713,,,A*6C
!AIVDM,1,1,,B,139GPj002A0pw:fOEC@8PVoV0D0W,0*66
!AIVDM,1,1,,B,?3S>Rb0jKqbPD00,2*60
$GPRMC,083252.000,A,5455.3816,N,01229.5423,E,4.90,135.77,310713,,,A*68
!AIVDM,1,1,,B,13Q;5n@01m0p6dfO?gwp>VIb2D0s,0*28
!AIVDM,1,1,,B,18JC3<002q0sm0JOWu2JWHMd08OT,0*0D
$GPRMC,083253.000,A,5455.3807,N,01229.5441,E,5.08,129.96,310713,,,A*6F
!AIVDM,1,1,,B,33@@?l0Oh?Pt=18OcNc5`AmV01v@,0*57
!AIVDM,1,1,,B,13Kri:3001PsEn<OF<MHiWG>00Rk,0*35
!AIVDM,1,1,,B,14SFG<001O0qkOROERwqBoUf0D11,0*33
$GPRMC,083254.000,A,5455.3797,N,01229.5459,E,5.07,135.19,310713,,,A*62
!AIVDM,1,1,,B,13B9>0?000Pq4QTOLL39ua1f2L0@,0*45
$GPRMC,083255.000,A,5455.3787,N,01229.5475,E,5.02,140.52,310713,,,A*64
!AIVDM,1,1,,B,D02R3WhRlNfq6DO6D0,4*21
$GPRMC,083256.000,A,5455.3777,N,01229.5491,E,5.03,135.29,310713,,,A*6D
!AIVDM,1,1,,B,13@ng3@000Po84:OJ=OKi8nL088G,0*1C
!AIVDM,1,1,,B,B3`mrnP0?H>D`w7nqR6NOwtUoP06,0*1D
$GPRMC,083257.000,A,5455.3767,N,01229.5509,E,4.85,132.83,310713,,,A*65
!AIVDM,1,1,,B,1779s?002:Prca:OFq<aa7il0D0e,0*24
$GPRMC,083258.000,A,5455.3758,N,01229.5524,E,4.76,140.95,310713,,,A*67
$GPRMC,083259.000,A,5455.3748,N,01229.5540,E,4.88,135.72,310713,,,A*6F
!AIVDM,1,1,,B,13@nknh0000qM::OK7?:BHL20<0K,0*6D
!AIVDM,1,1,,B,?3S>Rb0wNO1PD00,2*15
$GPRMC,083300.000,A,5455.3738,N,01229.5556,E,4.98,136.15,310713,,,A*61
!AIVDM,1,1,,B,14QsE4P0290sevVOE@>BWR240524,0*28
$GPRMC,083301.000,A,5455.3728,N,01229.5573,E,4.98,135.29,310713,,,A*6A
!AIVDM,1,1,,B,13uSbD002IPpk96OCaJAjQH20<0a,0*62
$GPRMC,083302.000,A,5455.3719,N,01229.5589,E,4.79,136.56,310713,,,A*6A
!AIVDM,2,1,6,B,53fqc402=ea8DTeb22058dhuN1LTpB2222222216>PD:;6140E4RAhH88888,0*06
!AIVDM,2,2,6,B,88888888880,2*21
!AIVDM,1,1,,B,139MHT002APpre:OEQ1pGVf0081t,0*21
!AIVDM,1,1,,B,?3S>Rb18NmQhD00,2*21
!AIVDM,1,1,,B,13u:Tn002LPq>f<ODhKQn1J40@21,0*42
!AIVDM,1,1,,B,E>j9dpQcTW2@30a6h10V:4QpW2P0M3:J?`DD000003vP10,4*6A
$GPRMC,083303.000,A,5455.3709,N,01229.5606,E,4.80,130.70,310713,,,A*6A
!AIVDM,1,1,,B,15@D6v00200p?6HO=nPhT0P800S8,0*25
!AIVDM,1,1,,B,13S>Rb00220rO4pOFL9aT7`80L11,0*69
$GPRMC,083304.000,A,5455.3700,N,01229.5622,E,4.94,143.21,310713,,,A*67
!AIVDM,1,1,,B,139GPj002A0pvrfOEAi8QVn60@34,0*00
!AIVDM,1,1,,B,?3S>Rb18NmQhD00,2*21
!AIVDM,1,1,,B,18JC3<002q0slN`OWu1bS`L<083D,0*6A
$GPRMC,083305.000,A,5455.3690,N,01229.5637,E,4.74,132.40,310713,,,A*65
$GPRMC,083306.000,A,5455.3681,N,01229.5654,E,4.65,132.01,310713,,,A*66
!AIVDM,1,1,,B,B3`jf?003@=t4W7oOjvWOwSUoP06,0*05
!AIVDM,1,1,,B,?3S>Rb26hVW0D00,2*6F
!AIVDM,1,1,,B,139HODgP000t=STONJDP0?v:00Rk,0*31
!AIVDM,1,1,,B,13fqc4001pPq624OAQFj;AbB0D0h,0*32
$GPRMC,083307.000,A,5455.3672,N,01229.5670,E,4.85,137.79,310713,,,A*69
$GPRMC,083308.000,A,5455.3661,N,01229.5684,E,4.99,146.53,310713,,,A*6C
!AIVDM,1,1,,A,13@nknh0010qM:4OK7?9m`ND0D0K,0*69
!AIVDM,1,1,,B,?3S>Rb26hVW0D00,2*6F
!AIVDM,1,1,,A,13u:Tn002LPq>r:ODi?1miJB085t,0*51
$GPRMC,083309.000,A,5455.3651,N,01229.5699,E,5.02,133.77,310713,,,A*65
!AIVDM,1,1,,A,139GPj002A0pvjhOEA1HRVnB00SK,0*25
$GPRMC,083310.000,A,5455.3642,N,01229.5717,E,4.80,125.80,310713,,,A*6C
!AIVDM,1,1,,A,13L?T1001E0s6EbOW<k3jjvF0@6f,0*78
!AIVDM,1,1,,A,18JC3<002q0sl@VOWu1bSHLH0L1a,0*5E
!AIVDM,1,1,,B,402R3Wiumw`Q;0tgk@OgcCA00@6v,0*68
$GPRMC,083311.000,A,5455.3633,N,01229.5733,E,4.54,145.28,310713,,,A*60
!AIVDM,1,1,,A,D02R3Wil4Nfp00O6D0,4*36
!AIVDM,1,1,,A,B3u?7j0008>@moWo81G87wV5oP06,0*60
!AIVDM,1,1,,A,14QsE4P0290sfCNOE@oBW22J0H7C,0*45
!AIVDM,1,1,,B,13Q;5n@01n0p6N0O?emH2VHJ20SN,0*78
$GPRMC,083312.000,A,5455.3622,N,01229.5746,E,5.13,142.42,310713,,,A*68
!AIVDM,1,1,,A,?3S>Rb0p1rdpD00,2*26
!AIVDM,1,1,,A,13LKfR001OPqpnDOP8fnuURJ2524,0*04
!AIVDM,1,1,,B,B39cHl00:0>J:T7mhlES3wVUkP06,0*08
!AIVDM,1,1,,B,13uSbD002IPpkM6OCbiijQHJ0L0a,0*16
$GPRMC,083313.000,A,5455.3612,N,01229.5762,E,4.86,130.89,310713,,,A*63
!AIVDM,1,1,,B,139MHT002APprOfOEO`8GVfF0<0a,0*36
!AIVDM,1,1,,B,14SFG<001O0qk8TOEQu9BoTN0D11,0*22
!AIVDM,1,1,,B,?3S>Rb0p1rdpD00,2*25
!AIVDM,1,1,,A,13S>Rb00220rNk4OFKT9T7`L0524,0*49
!AIVDM,1,1,,A,15@D6v00200p?;2O=olPTPNJ00T0,0*57
$GPRMC,083314.000,A,5455.3603,N,01229.5779,E,4.71,138.54,310713,,,A*6E
!AIVDM,1,1,,B,4025bpiumw`Q>Pnp@nOP4Ni02890,0*62
!AIVDM,1,1,,A,?3S>Rb0p1rdpD00,2*26
!AIVDM,1,1,,B,13u:Tn002LPq?4LODis1miJN0524,0*69
!AIVDM,1,1,,A,4020thAumw`Q?PvQIdO>O5G00<00,0*36
!AIVDM,1,1,,B,13B9>0?000Pq4QFOLL2h090P2@9K,0*23
$GPRMC,083315.000,A,5455.3592,N,01229.5794,E,4.94,143.27,310713,,,A*64
!AIVDM,1,1,,B,?3S>Rb0p1rdpD00,2*25
$GPRMC,083316.000,A,5455.3582,N,01229.5809,E,4.95,135.47,310713,,,A*6B
!AIVDM,1,1,,A,13fqc4001pPq6@rOAR6R;AbR08:8,0*78
!AIVDM,1,1,,B,1779s?002:Prc56OFp4a`ohR0524,0*31
!AIVDM,1,1,,B,139GPj002A0pvbpOE@AHP6lN00R`,0*01
$GPRMC,083317.000,A,5455.3573,N,01229.5826,E,4.73,128.57,310713,,,A*6C
$GPRMC,083318.000,A,5455.3564,N,01229.5843,E,4.83,136.06,310713,,,A*62
$GPRMC,083319.000,A,5455.3554,N,01229.5859,E,4.89,138.08,310713,,,A*61
!AIVDM,1,1,,B,13@@?l0Oh@Pt=4pOcNB6LRFR0524,0*61
!AIVDM,1,1,,B,13@nknh0010qM9vOK7>a4pPb0<0K,0*7B
$GPRMC,083320.000,A,5455.3545,N,01229.5875,E,4.57,126.06,310713,,,A*67
!AIVDM,1,1,,B,14QsE4P0290sfR`OEAE2WR2b0@<Q,0*7B
$GPRMC,083321.000,A,5455.3537,N,01229.5892,E,4.57,132.08,310713,,,A*61
!AIVDM,1,1,,B,13LKfR001OPqpn`OP7lnvURf28=R,0*6D
$GPRMC,083322.000,A,5455.3528,N,01229.5908,E,4.74,134.03,310713,,,A*62
!AIVDM,1,1,,B,?3S>Rb0uTNKPD00,2*76
$GPRMC,083323.000,A,5455.3520,N,01229.5925,E,4.57,128.86,310713,,,A*65
$GPRMC,083324.000,A,5455.3511,N,01229.5941,E,4.55,133.94,310713,,,A*69
!AIVDM,1,1,,B,15@D6v001v0p??>O=q;PRhNh00S5,0*4E
!AIVDM,1,1,,B,13S>Rb00220rNOdOFJqaSo`j00RV,0*3C
!AIVDM,1,1,,B,?3S>Rb0uTNKPD00,2*76
!AIVDM,1,1,,B,13uSbD002IPpkhjOCd9AjQHj0524,0*1F
$GPRMC,083325.000,A,5455.3503,N,01229.5958,E,4.50,125.59,310713,,,A*60
!AIVDM,1,1,,B,139SI@002b0sd;:OWsv`K6fl0D0P,0*2C
!AIVDM,1,1,,B,139MHT002APpr@4OEN1`I6hf0524,0*7D
!AIVDM,1,1,,B,D02R3Wia8Nfp00O6D0,4*34
$GPRMC,083326.000,A,5455.3496,N,01229.5975,E,4.60,131.59,310713,,,A*67
!AIVDM,1,1,,B,13u:Tn002LPq?HvODkCAn1Jn00S7,0*71
$GPRMC,083327.000,A,5455.3488,N,01229.5992,E,4.63,125.80,310713,,,A*62
!AIVDM,1,1,,B,?3S>Rb0l43u0D00,2*2C
!AIVDM,1,1,,B,B3aI:ch0?P><747mlKitGwf5kP06,0*2D
!AIVDM,1,1,,B,18JC3<002r0skMhOWu0bR`Lr08A4,0*29
$GPRMC,083328.000,A,5455.3481,N,01229.6009,E,4.52,125.60,310713,,,A*60
!AIVDM,1,1,,B,139GPj002A0pvK@OE>i8MVjn0@A9,0*5F
!AIVDM,1,1,,B,B39id=P09P>@r:Wo6Ir9GwfUoP06,0*54
$GPRMC,083329.000,A,5455.3473,N,01229.6027,E,4.56,129.71,310713,,,A*68
!AIVDM,1,1,,B,?3S>Rb0l43u0D00,2*2C
$GPRMC,083330.000,A,5455.3465,N,01229.6044,E,4.50,127.11,310713,,,A*6C
!AIVDM,1,1,,B,H39id=Pl59@Tp40000000000000,2*05
!AIVDM,1,1,,B,13@nicP0000q3n8OLIB7tS:t0l0=,0*40
!AIVDM,1,1,,B,402R3Wiumw`QO0tgk@OgcBi000S:,0*6C
!AIVDM,1,1,,B,H39id=TUC9=B1404?:A0001p5330,0*62
$GPRMC,083331.000,A,5455.3457,N,01229.6061,E,4.81,127.10,310713,,,A*66
!AIVDM,1,1,,B,13Q;5n@01n0p6>>O?cLH1FI220Rh,0*6C
$GPRMC,083332.000,A,5455.3450,N,01229.6079,E,4.44,124.97,310713,,,A*6E
!AIVDM,1,1,,B,13Kri:3001PsEmjOF<LpiWDT0H:i,0*22
$GPRMC,083333.000,A,5455.3443,N,01229.6096,E,4.35,125.84,310713,,,A*69
!AIVDM,1,1,,B,14SFG<001O0qjhDOEPoIBWU60524,0*3E
$GPRMC,083334.000,A,5455.3435,N,01229.6112,E,4.74,135.72,310713,,,A*6F
!AIVDM,1,1,,B,4025bpiumw`QRPnp@nOP4Ni02<3h,0*58
!AIVDM,1,1,,B,13B9>0?000Pq4QnOLL20091628Do,0*15
$GPRMC,083335.000,A,5455.3426,N,01229.6128,E,4.46,130.71,310713,,,A*62
$GPRMC,083336.000,A,5455.3420,N,01229.6145,E,4.21,114.79,310713,,,A*63
!AIVDM,1,1,,B,1779s?002:PrbO4OFnp9Woi:0D0f,0*35
$GPRMC,083337.000,A,5455.3413,N,01229.6161,E,4.28,136.54,310713,,,A*62
!AIVDM,1,1,,B,13uSbD002IPpl4jOCePiiQI:0D0a,0*70
!AIVDM,1,1,,B,139MHT002APpr0:OELH`J6i800S4,0*40
$GPRMC,083338.000,A,5455.3404,N,01229.6175,E,4.86,138.12,310713,,,A*66
!AIVDM,1,1,,B,?3S>Rb0pCtF0D00,2*33
!AIVDM,1,1,,B,13@nknh0010qM:4OK7>5H`U@0D0K,0*5D
$GPRMC,083339.000,A,5455.3395,N,01229.6192,E,4.42,126.14,310713,,,A*60
!AIVDM,1,1,,B,13u:Tn002LPq?eVODlcQnAK>0@Gb,0*5B
!AIVDM,1,1,,B,18JC3<002r0sjspOWtwJQpKB0524,0*3A
$GPRMC,083340.000,A,5455.3388,N,01229.6208,E,4.33,129.58,310713,,,A*63
!AIVDM,1,1,,B,13L?T1001E0s6rrOW<NSj2w@00Rw,0*43
!AIVDM,1,1,,B,139GPj002A0pv;lOE=?`MVk>00Rw,0*72
!AIVDM,1,1,,B,14QsE4P0290sg:POEBSRVj3D0524,0*57
$GPRMC,083341.000,A,5455.3379,N,01229.6223,E,4.45,139.43,310713,,,A*6F
!AIVDM,1,1,,B,13LKfR001OPqpo:OP5iVvUQD2@I4,0*42
$GPRMC,083342.000,A,5455.3372,N,01229.6239,E,4.36,119.15,310713,,,A*69
$GPRMC,083343.000,A,5455.3364,N,01229.6256,E,4.20,130.90,310713,,,A*67
$GPRMC,083344.000,A,5455.3356,N,01229.6271,E,4.47,135.71,310713,,,A*6F
!AIVDM,1,1,,B,?3S>Rb0pBiMTD00,2*40
!AIVDM,2,1,7,B,53Q;5n@2>R;A`@MG<004p@4q@D00000000000016<@A:75wn0<EQBS1@0000,0*72
!AIVDM,2,2,7,B,00000000000,2*20
!AIVDM,1,1,,B,13S>Rb00220rMtHOFId9R7WJ00RK,0*35
$GPRMC,083345.000,A,5455.3348,N,01229.6287,E,4.39,124.02,310713,,,A*65
!AIVDM,1,1,,B,13fqc4001pPq6t8OAT>j;QcN0<0h,0*60
$GPRMC,083346.000,A,5455.3341,N,01229.6304,E,4.36,124.71,310713,,,A*6E
$GPRMC,083347.000,A,5455.3334,N,01229.6320,E,4.02,135.13,310713,,,A*68
$GPRMC,083348.000,A,5455.3326,N,01229.6334,E,4.29,129.42,310713,,,A*61
$GPRMC,083349.000,A,5455.3319,N,01229.6351,E,4.38,121.87,310713,,,A*6E
!AIVDM,1,1,,B,139MHT002APpqjfOEJv`J6iN00ST,0*6B
!AIVDM,1,1,,B,?3S>Rb0jKqI`D00,2*7B
!AIVDM,1,1,,B,13uSbD002IPplHjOCfpAiQIR00S2,0*2B
!AIVDM,1,1,,B,H3uISITU71B=9>00000000000000,0*07
$GPRMC,083350.000,A,5455.3312,N,01229.6368,E,4.21,130.45,310713,,,A*61
!AIVDM,1,1,,B,402R3Wiumw`Qk0tgk@OgcBQ00<2v,0*51
!AIVDM,1,1,,B,13u:Tn002LPq@2>ODn3AnAKV0<0j,0*32
$GPRMC,083351.000,A,5455.3305,N,01229.6384,E,4.11,128.84,310713,,,A*63
!AIVDM,1,1,,B,?3S>Rb0jKqI`D00,2*7B
!AIVDM,1,1,,B,139GPj002A0puunOE;n8L6iT0@Nq,0*51
$GPRMC,083352.000,A,5455.3298,N,01229.6399,E,4.15,128.76,310713,,,A*60
!AIVDM,1,1,,B,18JC3<002r0sjG>OWtu:QHKd0524,0*2C
$GPRMC,083353.000,A,5455.3291,N,01229.6415,E,4.30,125.08,310713,,,A*68
!AIVDM,1,1,,B,14SFG<001O0qjFNOEOf9CGUf0@PC,0*5D
$GPRMC,083354.000,A,5455.3285,N,01229.6432,E,4.06,118.05,310713,,,A*69
!AIVDM,1,1,,B,4025bpiumw`QnPnp@nOP4Ni02<3O,0*43
!AIVDM,1,1,,B,13B9>0?000Pq4QVOLL2P091f2HPh,0*7E
$GPRMC,083355.000,A,5455.3278,N,01229.6448,E,4.08,133.16,310713,,,A*62
!AIVDM,1,1,,B,D02R3WhRlNfq6DO6D0,4*21
$GPRMC,083356.000,A,5455.3270,N,01229.6462,E,4.27,135.10,310713,,,A*6C
$GPRMC,083357.000,A,5455.3263,N,01229.6478,E,4.19,125.72,310713,,,A*6C
!AIVDM,1,1,,B,B3`mrnP0;p>DMQ7nq?FFkwtUoP06,0*1B
!AIVDM,1,1,,B,1779s?002:Prao>OFm`a`Wil0@RT,0*5A
$GPRMC,083358.000,A,5455.3257,N,01229.6495,E,4.29,114.66,310713,,,A*63
!AIVDM,1,1,,B,?3S>Rb0pCtF0D00,2*33
$GPRMC,083359.000,A,5455.3250,N,01229.6512,E,4.09,132.93,310713,,,A*67
!AIVDM,1,1,,B,13@nknh0020qM:bOK7<D>8`2080<,0*19
!AIVDM,1,1,,B,13@@?l0OhAPt=6hOcMU7Uk;l0<0h,0*5B
$GPRMC,083400.000,A,5455.3242,N,01229.6527,E,4.54,132.07,310713,,,A*6C
!AIVDM,1,1,,B,13L?T1001E0s7F0OW<@3kRv20<0J,0*1B
!AIVDM,1,1,,B,14QsE4P0290sghbOECe2`B2400SC,0*1C
$GPRMC,083401.000,A,5455.3236,N,01229.6543,E,4.12,118.76,310713,,,A*60
!AIVDM,1,1,,B,13uSbD002IPpldNOChBAjQH2081U,0*70
!AIVDM,1,1,,B,13LKfR001OPqpp2OP3dVuER62@1n,0*1E
$GPRMC,083402.000,A,5455.3229,N,01229.6560,E,4.13,126.72,310713,,,A*64
!AIVDM,1,1,,B,139MHT002APpqQnOEI@`J6h00528,0*1A
!AIVDM,1,1,,B,13u:Tn002LPq@E8ODoD1nAJ40<0k,0*27
$GPRMC,083403.000,A,5455.3222,N,01229.6575,E,4.29,133.32,310713,,,A*63
!AIVDM,1,1,,B,15@D6v00210p?QfO=vPhRPN60D<M,0*6D
!AIVDM,1,1,,B,13S>Rb00220rMK@OFHNaPGT80H2o,0*4E
$GPRMC,083404.000,A,5455.3214,N,01229.6591,E,4.26,128.33,310713,,,A*6F
!AIVDM,1,1,,B,139GPj002A0puflOE:C`K6h40<0a,0*40
$GPRMC,083405.000,A,5455.3207,N,01229.6607,E,4.46,120.43,310713,,,A*69
$GPRMC,083406.000,A,5455.3201,N,01229.6625,E,4.33,127.33,310713,,,A*6E
!AIVDM,1,1,,B,139HODgP000t=STONJDP0?v80<0W,0*61
!AIVDM,1,1,,B,33@@?l0OhAPt=6LOcMMWpCB:00v0,0*35
$GPRMC,083407.000,A,5455.3193,N,01229.6640,E,4.18,134.76,310713,,,A*6E
$GPRMC,083408.000,A,5455.3185,N,01229.6656,E,4.39,123.42,310713,,,A*63
$GPRMC,083409.000,A,5455.3179,N,01229.6673,E,4.21,120.85,310713,,,A*67
!AIVDM,1,1,,B,13@nicP0000q3mlOLI?WtS:@0h60,0*31
$GPRMC,083410.000,A,5455.3172,N,01229.6689,E,4.07,129.29,310713,,,A*6A
$GPRMC,083411.000,A,5455.3165,N,01229.6705,E,4.34,128.62,310713,,,A*66
$GPRMC,083412.000,A,5455.3158,N,01229.6721,E,4.46,126.81,310713,,,A*6B
!AIVDM,1,1,,B,B39cHl00:@>J?lWmhCUEswV5kP06,0*2C
!AIVDM,1,1,,B,13Q;5n@01n0p5h<O?VjWrF@J2<0r,0*71
!AIVDM,1,1,,B,13uSbD002IPplvVOCiRAlQHH0H8<,0*07
$GPRMC,083413.000,A,5455.3151,N,01229.6738,E,4.32,124.22,310713,,,A*63
!AIVDM,1,1,,B,139MHT002APpqDJOEGn`J6hF088F,0*04
!AIVDM,1,1,,B,14SFG<001O0qiwfOENd9CGTN0@8H,0*0E
!AIVDM,1,1,,B,33@@?l0Oh@Pt=68OcMF83CJF01r@,0*66
$GPRMC,083414.000,A,5455.3144,N,01229.6755,E,4.12,124.49,310713,,,A*64
!AIVDM,1,1,,B,4025bpiumw`R>Pnp@nOP4Ni02528,0*6F
!AIVDM,1,1,,B,13u:Tn002LPq@cRODpk1nQJN00Rv,0*42
!AIVDM,1,1,,B,13B9>0?000Pq4QTOLL2b>90P2<0@,0*4B
$GPRMC,083415.000,A,5455.3137,N,01229.6771,E,4.42,129.74,310713,,,A*61
!AIVDM,1,1,,B,?3S>Rb0pBiMTD00,2*40
!AIVDM,1,1,,B,139GPj002A0puNdOE8`8HVfN0H9q,0*63
!AIVDM,2,1,8,B,53Q;5n@2>R;A`@MG<004p@4q@D00000000000016<@A:75wn0<EQBS1@0000,0*7D
!AIVDM,2,2,8,B,00000000000,2*2F
$GPRMC,083416.000,A,5455.3130,N,01229.6788,E,4.49,126.81,310713,,,A*6D
!AIVDM,1,1,,B,18JC3<002r0siFNOWtnrPHJT0<1d,0*67
!AIVDM,1,1,,B,1779s?002:PraC4OFlOqa7hR00T8,0*06
$GPRMC,083417.000,A,5455.3122,N,01229.6805,E,4.36,124.92,310713,,,A*6D
!AIVDM,1,1,,B,?3S>Rb0pBiMTD00,2*40
$GPRMC,083418.000,A,5455.3115,N,01229.6822,E,4.44,125.75,310713,,,A*6E
!AIVDM,1,1,,B,13L?T1001E0s7e@OW<43kRvV00S;,0*46
$GPRMC,083419.000,A,5455.3109,N,01229.6839,E,4.27,123.60,310713,,,A*6F
!AIVDM,1,1,,B,13@nknh0010qM;4OK7<itpTb08<1,0*07
$GPRMC,083420.000,A,5455.3101,N,01229.6855,E,4.24,129.67,310713,,,A*69
!AIVDM,1,1,,B,?3S>Rb0lRdq0D00,2*19
!AIVDM,1,1,,B,14QsE4P0290shD`OEDlRVR2b0<0B,0*4D
$GPRMC,083421.000,A,5455.3095,N,01229.6873,E,4.59,116.34,310713,,,A*60
!AIVDM,1,1,,B,13bv=D002B0p`>DOAK=a;WFf08=7,0*37
!AIVDM,1,1,,B,13LKfR001OPqppFOP1`o3UVf2528,0*77
$GPRMC,083422.000,A,5455.3089,N,01229.6892,E,4.26,119.45,310713,,,A*60
!AIVDM,1,1,,B,?3S>Rb0lRdq0D00,2*19
$GPRMC,083423.000,A,5455.3082,N,01229.6908,E,4.21,137.64,310713,,,A*60
!AIVDM,1,1,,B,13S>Rb00220rLpTOFG<9NWTh0H>J,0*32
!AIVDM,1,1,,B,15@D6v001w0p?cFO>1IhS0Pj0@>d,0*6B
$GPRMC,083424.000,A,5455.3075,N,01229.6924,E,4.49,118.54,310713,,,A*61
!AIVDM,1,1,,B,13uSbD002IPpmAvOCjtAlQHh00SP,0*6B
$GPRMC,083425.000,A,5455.3070,N,01229.6942,E,4.29,119.05,310713,,,A*66
!AIVDM,1,1,,B,139MHT002APpq5fOEFE8HVff00S4,0*76
!AIVDM,1,1,,B,D02R3Wia8Nfp00O6D0,4*34
$GPRMC,083426.000,A,5455.3064,N,01229.6960,E,4.44,120.71,310713,,,A*62
!AIVDM,1,1,,B,139HODgP000t=STONJDP0?vh0@?u,0*60
!AIVDM,1,1,,B,13fqc4001pPq7ppOAW>R;ibp00Re,0*72
!AIVDM,1,1,,B,13u:Tn002LPqA0>ODr:Qo1Jn0@@C,0*59
$GPRMC,083427.000,A,5455.3058,N,01229.6978,E,4.21,121.07,310713,,,A*66
!AIVDM,1,1,,B,B3aI:ch0@@><2>WmkIawCwf5kP06,0*27
!AIVDM,1,1,,B,18JC3<002r0shl`OWtl:OpJr0528,0*7F
$GPRMC,083428.000,A,5455.3051,N,01229.6995,E,4.20,126.81,310713,,,A*6B
!AIVDM,1,1,,B,139GPj002A0pu?nOE74pK6hn0<0b,0*28
$GPRMC,083429.000,A,5455.3046,N,01229.7012,E,4.13,115.36,310713,,,A*67
!AIVDM,1,1,,B,?3S>Rb18m?EPD00,2*7C
!AIVDM,1,1,,B,B39id=P0>h>@hNWo65:M3wg5oP06,0*50
$GPRMC,083430.000,A,5455.3040,N,01229.7029,E,4.07,122.79,310713,,,A*6B
!AIVDM,1,1,,B,13@nicP0000q3mlOLIB7tS:t0hBW,0*0B
!AIVDM,1,1,,B,13Q;5n@01o0p5SdO?TDomnA02@Bc,0*54
!AIVDM,1,1,,B,402R3Wiumw`RO0tgkFOgcB100@Bd,0*0E
!AIVDM,1,1,,B,?3S>Rb0wNO1PD00,2*15
$GPRMC,083431.000,A,5455.3033,N,01229.7045,E,4.29,127.98,310713,,,A*62
$GPRMC,083432.000,A,5455.3027,N,01229.7063,E,4.34,121.21,310713,,,A*68
$GPRMC,083433.000,A,5455.3020,N,01229.7080,E,4.37,125.32,310713,,,A*66
!AIVDM,1,1,,B,14SFG<001O0qiWjOEMVaCGU600SP,0*31
!AIVDM,1,1,,B,?3S>Rb0rl@70D00,2*5B
$GPRMC,083434.000,A,5455.3013,N,01229.7098,E,4.35,121.75,310713,,,A*6D
!AIVDM,1,1,,B,4025bpiumw`RRPnp@nOP4Ni028Df,0*26
!AIVDM,1,1,,B,33B9>0?000Pq4QTOLL4009162BKC,0*72
!AIVDM,1,1,,B,?3S>Rb0rl@70D00,2*5B
$GPRMC,083435.000,A,5455.3007,N,01229.7115,E,4.11,124.49,310713,,,A*61
$GPRMC,083436.000,A,5455.3001,N,01229.7132,E,4.35,121.63,310713,,,A*6A
!AIVDM,1,1,,B,1779s?002:Pr`e0OFkDa`oi:0@F@,0*13
$GPRMC,083437.000,A,5455.2995,N,01229.7151,E,4.28,117.73,310713,,,A*63
!AIVDM,1,1,,B,139MHT002APppo2OEDn8HVg60D0V,0*74
!AIVDM,1,1,,B,13uSbD002IPpmUbOClCijQI80@FO,0*5F
$GPRMC,083438.000,A,5455.2989,N,01229.7168,E,4.14,125.00,310713,,,A*61
!AIVDM,1,1,,B,13@nknh0020qM;JOK7=iBHO@0@G8,0*46
$GPRMC,083439.000,A,5455.2983,N,01229.7185,E,4.33,122.38,310713,,,A*60
!AIVDM,2,1,9,B,53uSbD023PGI<PiD000QD<dhD8E99V0HTpp0000t2RL==5wce=U4QC31@SlQ,0*1F
!AIVDM,2,2,9,B,h0000000000,2*76
!AIVDM,1,1,,B,13u:Tn002LPqADvODsR1o1K>0<0n,0*1C
!AIVDM,1,1,,B,13L?T1001E0s888OW;m3hBw@0@H2,0*54
!AIVDM,1,1,,B,18JC3<002r0shBjOWtiJOHKB00SI,0*32
$GPRMC,083440.000,A,5455.2976,N,01229.7203,E,4.38,121.54,310713,,,A*6B
!AIVDM,1,1,,B,139GPj002A0pu0vOE5Q`J6i>0<0b,0*18
!AIVDM,1,1,,B,13@@?l0OhBPt=2HOcLu9<Su<00Ru,0*6F
$GPRMC,083441.000,A,5455.2970,N,01229.7221,E,4.27,121.58,310713,,,A*6E
!AIVDM,1,1,,B,13LKfR001OPqpp2OOwSo45WD2<00,0*2E
!AIVDM,1,1,,B,14STQL0022PtSBdOJ:kIgGiD0<0T,0*13
$GPRMC,083442.000,A,5455.2964,N,01229.7238,E,4.12,122.86,310713,,,A*66
$GPRMC,083443.000,A,5455.2957,N,01229.7255,E,4.19,125.49,310713,,,A*63
!AIVDM,1,1,,B,13S>Rb00220rLEpOFEo9MWUH0<0v,0*16
!AIVDM,1,1,,B,H39cHl4T000000048lpno01H1210,0*2A
!AIVDM,1,1,,B,?3S>Rb0p2FNTD00,2*1C
$GPRMC,083444.000,A,5455.2950,N,01229.7272,E,4.43,124.13,310713,,,A*67
$GPRMC,083445.000,A,5455.2944,N,01229.7290,E,4.34,122.49,310713,,,A*66
$GPRMC,083446.000,A,5455.2938,N,01229.7307,E,4.23,119.34,310713,,,A*65
!AIVDM,1,1,,B,139HODgP000t=STONJDP0?wH00Rl,0*45
$GPRMC,083447.000,A,5455.2931,N,01229.7324,E,4.23,133.75,310713,,,A*61
$GPRMC,083448.000,A,5455.2923,N,01229.7339,E,4.49,124.79,310713,,,A*67
$GPRMC,083449.000,A,5455.2917,N,01229.7357,E,4.29,120.67,310713,,,A*64
!AIVDM,1,1,,B,13uSbD002IPpms>OCmjijQIR0@MS,0*70
!AIVDM,1,1,,B,139MHT002APppV<OEC8HJ6iP0HMs,0*3C
$GPRMC,083450.000,A,5455.2910,N,01229.7374,E,4.00,126.69,310713,,,A*69
!AIVDM,1,1,,B,13@nicP0000q3n8OLIDWtS;T0l0;,0*01
!AIVDM,1,1,,B,402R3Wiumw`Rk0tgkHOgcAi008NJ,0*25
!AIVDM,1,1,,B,13u:Tn002LPqAabODtqiniKV08NS,0*27
$GPRMC,083451.000,A,5455.2902,N,01229.7390,E,4.69,132.05,310713,,,A*61
!AIVDM,2,1,0,B,58JC3<02?JUkUKOWS:1HTdTpN0t@E=<622222216;0l=960l0>`1CA1C`888,0*17
!AIVDM,2,2,0,B,88888888880,2*27
!AIVDM,1,1,,B,139GPj002A0ptkHOE46`K6gT0<0b,0*7F
$GPRMC,083452.000,A,5455.2895,N,01229.7408,E,4.60,122.95,310713,,,A*6A
!AIVDM,1,1,,B,13Q;5n@01o0p5G<O?QoomVAb2<0p,0*41
$GPRMC,083453.000,A,5455.2888,N,01229.7426,E,4.58,122.31,310713,,,A*6E
!AIVDM,1,1,,B,14SFG<001P0qi=tOELLqCGUf0<13,0*0C
$GPRMC,083454.000,A,5455.2881,N,01229.7444,E,4.30,127.48,310713,,,A*61
!AIVDM,1,1,,B,4025bpiumw`RnPnp@nOP4Ni028PL,0*24
!AIVDM,1,1,,B,13B9>0?000Pq4QpOLL4P08wf2D0@,0*5D
$GPRMC,083455.000,A,5455.2874,N,01229.7461,E,4.38,124.00,310713,,,A*6A
!AIVDM,1,1,,B,D02R3WhRlNfq6DO6D0,4*21
$GPRMC,083456.000,A,5455.2867,N,01229.7478,E,4.38,126.89,310713,,,A*60
!AIVDM,1,1,,B,13@ng3@000Po84ROJ=OswpnL00RB,0*7D
$GPRMC,083457.000,A,5455.2861,N,01229.7497,E,4.87,115.36,310713,,,A*66
!AIVDM,1,1,,B,B3`mrnP0<8>DD2WnplV>owtUoP06,0*60
!AIVDM,1,1,,B,1779s?002:Pr`54OFj4qa7il0<0e,0*06
$GPRMC,083458.000,A,5455.2855,N,01229.7516,E,4.25,122.61,310713,,,A*68
!AIVDM,1,1,,B,?3S>Rb0lRdq0D00,2*19
!AIVDM,1,1,,B,?3S>Rb0lRdq0D00,2*19
$GPRMC,083459.000,A,5455.2847,N,01229.7533,E,4.45,131.19,310713,,,A*66
!AIVDM,1,1,,B,13@nknh0010qM;TOK7>0hHF2052<,0*54
$GPRMC,083500.000,A,5455.2840,N,01229.7550,E,4.49,123.22,310713,,,A*6E
!AIVDM,1,1,,B,13L?T1001E0s8S@OW;VklRv2080o,0*1E
$GPRMC,083501.000,A,5455.2834,N,01229.7568,E,4.41,119.18,310713,,,A*6F
!AIVDM,1,1,,B,13uSbD002IPpn>rOCo<ikQH2052<,0*23
!AIVDM,1,1,,B,13LKfR001OPqpolOOuOW45V62<00,0*3A
$GPRMC,083502.000,A,5455.2828,N,01229.7586,E,4.27,120.98,310713,,,A*63
!AIVDM,1,1,,B,139MHT002APppGjOEAV`J6h000S6,0*7D
!AIVDM,1,1,,B,13u:Tn002LPqAt`ODv:AniJ40821,0*2C
$GPRMC,083503.000,A,5455.2822,N,01229.7604,E,4.41,123.22,310713,,,A*63
!AIVDM,1,1,,B,15@D6v001w0p?v:O>6W@a0`80@2T,0*5F
!AIVDM,1,1,,B,13S>Rb00220rKkPOFDR9LoT80D0v,0*13
$GPRMC,083504.000,A,5455.2815,N,01229.7622,E,4.39,124.02,310713,,,A*6E
!AIVDM,1,1,,B,139GPj002A0ptSNOE2J8FVf60834,0*3C
$GPRMC,083505.000,A,5455.2809,N,01229.7639,E,4.13,124.04,310713,,,A*66
$GPRMC,083506.000,A,5455.2803,N,01229.7656,E,4.54,122.83,310713,,,A*6C
!AIVDM,1,1,,B,139HODgP000t=STONJDP0?v8084E,0*73
$GPRMC,083507.000,A,5455.2796,N,01229.7675,E,4.72,118.46,310713,,,A*6B
!AIVDM,2,1,1,B,53@nicP1`9Vlu`@W:210E@E:0l4A<Dr22222220Q385445r:050PC52@p<`8,0*00
!AIVDM,2,2,1,B,88888888880,2*26
!AIVDM,1,1,,B,?3S>Rb1AIfnPD00,2*53
$GPRMC,083508.000,A,5455.2790,N,01229.7693,E,4.00,122.22,310713,,,A*64
$GPRMC,083509.000,A,5455.2784,N,01229.7708,E,4.15,131.51,310713,,,A*61
!AIVDM,1,1,,B,13@nicP0000q3nhOLIB7tS<@0d0;,0*2C
!AIVDM,1,1,,B,?3S>Rb1AIfnPD00,2*53
$GPRMC,083510.000,A,5455.2777,N,01229.7726,E,4.51,115.11,310713,,,A*6B
!AIVDM,1,1,,B,402R3Wiumw`S;0tgkJOgcAi0086v,0*32
$GPRMC,083511.000,A,5455.2773,N,01229.7746,E,4.42,105.00,310713,,,A*6B
!AIVDM,1,1,,B,B39cHl00<h>JDj7mgWeUSwV5kP06,0*04
$GPRMC,083512.000,A,5455.2768,N,01229.7764,E,4.49,129.18,310713,,,A*6E
!AIVDM,1,1,,B,13uSbD002IPpnRBOCpTAlQHJ0D0a,0*71
$GPRMC,083513.000,A,5455.2761,N,01229.7781,E,4.16,127.51,310713,,,A*64
!AIVDM,1,1,,B,139MHT002APpp;DOE@ApGVfD052<,0*50
!AIVDM,1,1,,B,14SFG<001P0qho2OEKIqCWTN0<13,0*22
$GPRMC,083514.000,A,5455.2755,N,01229.7798,E,4.05,114.19,310713,,,A*62
!AIVDM,1,1,,B,4025bpiumw`S>Pnp@nOP4Ni020S:,0*08
!AIVDM,1,1,,B,13u:Tn002LPqBADODwR1niJL0D0l,0*7C
!AIVDM,1,1,,B,13B9>0?000Pq4QjOLL3h090P289K,0*76
$GPRMC,083515.000,A,5455.2750,N,01229.7815,E,4.33,118.61,310713,,,A*6A
!AIVDM,1,1,,B,13@ng3@000Po84POJ=P<n`o2052<,0*42
!AIVDM,1,1,,B,139GPj002A0ptF2OE0v`FVfL0D0d,0*66
$GPRMC,083516.000,A,5455.2743,N,01229.7832,E,4.39,132.04,310713,,,A*6F
$GPRMC,083517.000,A,5455.2735,N,01229.7849,E,4.47,122.65,310713,,,A*6C
$GPRMC,083518.000,A,5455.2729,N,01229.7868,E,4.44,115.55,310713,,,A*69
!AIVDM,1,1,,B,1779s?002:PrWO6OFhqaaWhT0L0d,0*36
$GPRMC,083519.000,A,5455.2723,N,01229.7886,E,4.29,122.88,310713,,,A*6D
!AIVDM,1,1,,B,13@nknh0010qM;POK7=al`Bb052<,0*7A
$GPRMC,083520.000,A,5455.2717,N,01229.7903,E,4.16,120.82,310713,,,A*68
$GPRMC,083521.000,A,5455.2711,N,01229.7920,E,4.15,119.40,310713,,,A*69
!AIVDM,1,1,,B,13LKfR001OPqpo>OOsKG5EVf20T4,0*37
$GPRMC,083522.000,A,5455.2706,N,01229.7939,E,4.39,115.76,310713,,,A*63
$GPRMC,083523.000,A,5455.2701,N,01229.7957,E,4.28,118.09,310713,,,A*68
!AIVDM,1,1,,B,13S>Rb00220rK@lOFC=9MoVh0D0p,0*39
!AIVDM,1,1,,B,14STQL0021PtR66OJ8d9gGhh0<0S,0*60
$GPRMC,083524.000,A,5455.2695,N,01229.7975,E,4.17,122.76,310713,,,A*6E
!AIVDM,1,1,,B,?3S>Rb0jKqj`D00,2*58
$GPRMC,083525.000,A,5455.2689,N,01229.7992,E,4.24,118.45,310713,,,A*62
!AIVDM,1,1,,B,139MHT002APpoqPOE>NpJ6hh0H?N,0*2D
!AIVDM,1,1,,B,13uSbD002IPpnmvOCqvAlQHj0D0a,0*79
!AIVDM,1,1,,B,D02R3Wia8Nfp00O6D0,4*34
$GPRMC,083526.000,A,5455.2683,N,01229.8010,E,4.22,118.46,310713,,,A*62
!AIVDM,1,1,,B,139HODgP000t=STONJDP0?vf0<0W,0*3F
!AIVDM,1,1,,B,B39jJCP0@`>Q6C7ofqHHwweUoP06,0*12
!AIVDM,1,1,,B,13u:Tn002LPqBWfOE10iniJn0<0l,0*6F
$GPRMC,083527.000,A,5455.2677,N,01229.8027,E,4.05,125.46,310713,,,A*67
$GPRMC,083528.000,A,5455.2671,N,01229.8045,E,4.40,116.81,310713,,,A*60
!AIVDM,1,1,,B,139GPj002A0pt66ODwBHGVfn08A9,0*3B
$GPRMC,083529.000,A,5455.2666,N,01229.8064,E,4.29,116.61,310713,,,A*65
$GPRMC,083530.000,A,5455.2660,N,01229.8081,E,4.02,125.91,310713,,,A*66
!AIVDM,1,1,,B,13@nicP0000q3o4OLIB7tS:p0d0;,0*47
!AIVDM,1,1,,B,13Q;5n@01o0p4vBO?LvomFA02<0p,0*49
!AIVDM,1,1,,B,402R3Wiumw`SO0tgkJOgcAQ00<3F,0*4F
$GPRMC,083531.000,A,5455.2654,N,01229.8098,E,4.35,116.20,310713,,,A*66
!AIVDM,1,1,,B,B39id=P0>0>@Uw7o5Ov<cwh5oP06,0*77
$GPRMC,083532.000,A,5455.2649,N,01229.8117,E,4.34,117.02,310713,,,A*6F
$GPRMC,083533.000,A,5455.2643,N,01229.8135,E,4.28,121.87,310713,,,A*61
!AIVDM,1,1,,B,14SFG<001O0qhNpOEJDICoU60L14,0*5C
!AIVDM,2,1,2,B,53S>Rb02?LjST47KWSQHE8TLF22222222222221IDHPD<68<0KF@@U@hkhH8,0*4A
!AIVDM,2,2,2,B,88888888880,2*25
$GPRMC,083534.000,A,5455.2637,N,01229.8153,E,4.20,121.67,310713,,,A*63
!AIVDM,1,1,,B,4025bpiumw`SRPnp@nOP4Ni0252<,0*06
!AIVDM,1,1,,B,13B9>0?000Pq4R2OLL40091620S@,0*7C
$GPRMC,083535.000,A,5455.2631,N,01229.8170,E,4.20,120.96,310713,,,A*6A
!AIVDM,1,1,,B,4020tUAumw`STPq?G8O:se700HEA,0*32
$GPRMC,083536.000,A,5455.2626,N,01229.8188,E,4.49,113.48,310713,,,A*64
!AIVDM,1,1,,B,1779s?002:PrVrvOFgi9a7i:0<0d,0*7A
$GPRMC,083537.000,A,5455.2620,N,01229.8206,E,4.36,127.37,310713,,,A*61
!AIVDM,1,1,,B,139MHT002APpochOE=2HJ6i60@FL,0*6C
!AIVDM,1,1,,B,13uSbD002IPpo9bOCsEikQI:0<0a,0*0F
$GPRMC,083538.000,A,5455.2613,N,01229.8223,E,4.36,121.64,310713,,,A*69
!AIVDM,1,1,,B,13@nknh0020qM;HOK7<H?HA@0<0K,0*6F
$GPRMC,083539.000,A,5455.2607,N,01229.8241,E,4.39,119.17,310713,,,A*69
!AIVDM,1,1,,B,13u:Tn002LPqBtLOE2HQo1K>08Gb,0*50
!AIVDM,1,1,,B,13L?T1001D0s9E>OW;=Sijw@0<0K,0*4B
$GPRMC,083540.000,A,5455.2601,N,01229.8259,E,4.28,122.52,310713,,,A*61
!AIVDM,1,1,,B,139GPj002A0psoLODuf`FVg>08HB,0*33
!AIVDM,1,1,,B,14QsE4P0290sjf@OEIUjUAwD0<0B,0*32
$GPRMC,083541.000,A,5455.2594,N,01229.8277,E,4.59,123.01,310713,,,A*62
!AIVDM,1,1,,B,?3S>Rb18NmQhD00,2*21
!AIVDM,1,1,,B,13LKfR001OPqpnBOOqGG4EUD28I4,0*71
$GPRMC,083542.000,A,5455.2587,N,01229.8295,E,4.43,122.53,310713,,,A*62
$GPRMC,083543.000,A,5455.2581,N,01229.8313,E,4.41,123.76,310713,,,A*6E
!AIVDM,1,1,,B,13S>Rb00220rJelOFAraP7aH08J?,0*13
!AIVDM,1,1,,B,?3S>Rb18NmQhD00,2*21
$GPRMC,083544.000,A,5455.2574,N,01229.8332,E,4.55,121.39,310713,,,A*6C
$GPRMC,083545.000,A,5455.2567,N,01229.8351,E,4.68,123.20,310713,,,A*6E
!AIVDM,1,1,,B,139HODgP000t=STONJDP0?wH0L0W,0*60
!AIVDM,1,1,,B,13fqc4001pPq9fnOAdwj<1eP052<,0*72
$GPRMC,083546.000,A,5455.2560,N,01229.8370,E,4.52,121.42,310713,,,A*66
!AIVDM,1,1,,B,?3S>Rb0p2FNTD00,2*1C
$GPRMC,083547.000,A,5455.2554,N,01229.8388,E,4.43,123.81,310713,,,A*6A
$GPRMC,083548.000,A,5455.2546,N,01229.8406,E,4.55,125.97,310713,,,A*61
!AIVDM,1,1,,B,?3S>Rb0p2FNTD00,2*1C
$GPRMC,083549.000,A,5455.2540,N,01229.8424,E,4.60,121.12,310713,,,A*69
!AIVDM,1,1,,B,13uSbD002IPpoMFOCtgikQIR0<0`,0*13
!AIVDM,1,1,,B,139MHT002APpoLLOE;KpGVgP0D0U,0*4E
$GPRMC,083550.000,A,5455.2533,N,01229.8444,E,4.62,118.59,310713,,,A*64
!AIVDM,1,1,,B,?3S>Rb0jGCmPD00,2*51
!AIVDM,1,1,,B,402R3Wiumw`Sk0tgkHOgcAQ0052<,0*1B
!AIVDM,1,1,,B,13u:Tn002LPqCA:OE3hAniKV052<,0*34
$GPRMC,083551.000,A,5455.2527,N,01229.8463,E,4.50,125.00,310713,,,A*66
!AIVDM,1,1,,B,139GPj002A0ps`jODt:pFVgV08Nq,0*0A
!AIVDM,1,1,,B,H3`jf?4TC9=B140@4mkhj0105220,0*19
$GPRMC,083552.000,A,5455.2520,N,01229.8480,E,4.32,121.95,310713,,,A*63
!AIVDM,1,1,,B,?3S>Rb0jGCmPD00,2*51
$GPRMC,083553.000,A,5455.2514,N,01229.8498,E,4.42,121.83,310713,,,A*6C
!AIVDM,1,1,,B,14SFG<001O0qh5VOEI;9CoUf08PC,0*3F
$GPRMC,083554.000,A,5455.2509,N,01229.8518,E,4.63,107.30,310713,,,A*61
!AIVDM,1,1,,B,4025bpiumw`SnPnp@nOP4Ni0252<,0*3A
!AIVDM,1,1,,B,?3S>Rb0lB?;PD00,2*78
!AIVDM,1,1,,B,13B9>0?000Pq4QtOLL4008wf2@Ph,0*75
