$GPGGA,190426.000,5240.2311,N,01332.7202,E,1,09,1.2,53.6,M,44.3,M,,0000*6B
$GPGSA,A,3,20,19,18,30,13,17,15,28,24,,,,1.9,1.2,1.5*31
$GPGSV,3,1,12,13,67,158,23,15,63,273,31,28,55,066,27,24,28,271,28*7E
$GPGSV,3,2,12,19,28,102,29,17,25,121,31,20,25,238,21,18,22,307,21*71
$GPGSV,3,3,12,30,20,084,25,10,07,335,,11,05,046,,05,04,195,32*79
$GPRMC,190426.000,A,5240.2311,N,01332.7202,E,0.00,248.26,221215,,,A*6D
$GPVTG,248.26,T,,M,0.00,N,0.0,K,A*07
$GPGGA,190427.000,5240.2311,N,01332.7202,E,1,09,1.2,53.6,M,44.3,M,,0000*6A
$GPRMC,190427.000,A,5240.2311,N,01332.7202,E,0.00,248.26,221215,,,A*6C
$GPVTG,248.26,T,,M,0.00,N,0.0,K,A*07
$GPGGA,190428.000,5240.2311,N,01332.7202,E,1,09,1.2,53.6,M,44.3,M,,0000*65
$GPRMC,190428.000,A,5240.2311,N,01332.7202,E,0.00,248.26,221215,,,A*63
$GPVTG,248.26,T,,M,0.00,N,0.0,K,A*07
$GPGGA,190429.000,5240.2311,N,01332.7202,E,1,09,1.2,53.6,M,44.3,M,,0000*64
$GPRMC,190429.000,A,5240.2311,N,01332.7202,E,0.00,248.26,221215,,,A*62
$GPVTG,248.26,T,,M,0.00,N,0.0,K,A*07
$GPGGA,190430.000,5240.2311,N,01332.7202,E,1,09,1.2,53.6,M,44.3,M,,0000*6C
$GPRMC,190430.000,A,5240.2311,N,01332.7202,E,0.00,248.26,221215,,,A*6A
$GPVTG,248.26,T,,M,0.00,N,0.0,K,A*07
$GPGGA,190431.000,5240.2311,N,01332.7202,E,1,09,1.2,53.6,M,44.3,M,,0000*6D
$GPGSA,A,3,20,19,18,30,13,17,15,28,24,,,,1.9,1.2,1.5*31
$GPGSV,3,1,12,13,67,158,24,15,63,273,30,28,55,066,26,24,28,271,28*79
$GPGSV,3,2,12,19,28,102,29,17,25,121,32,20,25,238,21,18,22,307,21*72
$GPGSV,3,3,12,30,20,084,25,10,07,335,,11,05,046,,05,04,195,31*7A
$GPRMC,190431.000,A,5240.2311,N,01332.7202,E,0.00,248.26,221215,,,A*6B
$GPVTG,248.26,T,,M,0.00,N,0.0,K,A*07
$GPGGA,190432.000,5240.2311,N,01332.7202,E,1,09,1.2,53.6,M,44.3,M,,0000*6E
$GPRMC,190432.000,A,5240.2311,N,01332.7202,E,0.00,248.26,221215,,,A*68
$GPVTG,248.26,T,,M,0.00,N,0.0,K,A*07
$GPGGA,190433.000,5240.2311,N,01332.7202,E,1,09,1.2,53.6,M,44.3,M,,0000*6F
$GPRMC,190433.000,A,5240.2311,N,01332.7202,E,0.00,248.26,221215,,,A*69
$GPVTG,248.26,T,,M,0.00,N,0.0,K,A*07
$GPGGA,190434.000,5240.2311,N,01332.7202,E,1,09,1.2,53.6,M,44.3,M,,0000*68
$GPRMC,190434.000,A,5240.2311,N,01332.7202,E,0.00,248.26,221215,,,A*6E
$GPVTG,248.26,T,,M,0.00,N,0.0,K,A*07
$GPGGA,190435.000,5240.2311,N,01332.7202,E,1,09,1.2,53.6,M,44.3,M,,0000*69
$GPRMC,190435.000,A,5240.2311,N,01332.7202,E,0.00,248.26,221215,,,A*6F
$GPVTG,248.26,T,,M,0.00,N,0.0,K,A*07
$GPGGA,190436.000,5240.2311,N,01332.7202,E,1,09,1.2,53.6,M,44.3,M,,0000*6A
$GPGSA,A,3,20,19,18,30,13,17,15,28,24,,,,1.9,1.2,1.5*31
$GPGSV,3,1,12,13,67,158,24,15,63,273,29,28,55,066,26,24,28,271,22*7B
$GPGSV,3,2,12,19,28,102,28,17,25,121,32,20,25,238,21,18,22,307,22*70
$GPGSV,3,3,12,30,20,084,24,10,07,335,,11,05,046,,05,04,195,31*7B
$GPRMC,190436.000,A,5240.2311,N,01332.7202,E,0.00,248.26,221215,,,A*6C
$GPVTG,248.26,T,,M,0.00,N,0.0,K,A*07
$GPGGA,190437.000,5240.2311,N,01332.7202,E,1,09,1.2,53.6,M,44.3,M,,0000*6B
$GPRMC,190437.000,A,5240.2311,N,01332.7202,E,0.00,248.26,221215,,,A*6D
$GPVTG,248.26,T,,M,0.00,N,0.0,K,A*07
$GPGGA,190438.000,5240.2311,N,01332.7202,E,1,09,1.2,53.6,M,44.3,M,,0000*64
$GPRMC,190438.000,A,5240.2311,N,01332.7202,E,0.00,248.26,221215,,,A*62
$GPVTG,248.26,T,,M,0.00,N,0.0,K,A*07
$GPGGA,190439.000,5240.2311,N,01332.7202,E,1,09,1.2,53.6,M,44.3,M,,0000*65
$GPRMC,190439.000,A,5240.2311,N,01332.7202,E,0.00,248.26,221215,,,A*63
$GPVTG,248.26,T,,M,0.00,N,0.0,K,A*07
$GPGGA,190440.000,5240.2311,N,01332.7202,E,1,09,1.2,53.6,M,44.3,M,,0000*6B
$GPRMC,190440.000,A,5240.2311,N,01332.7202,E,0.00,248.26,221215,,,A*6D
$GPVTG,248.26,T,,M,0.00,N,0.0,K,A*07
$GPGGA,190441.000,5240.2311,N,01332.7202,E,1,09,1.2,53.6,M,44.3,M,,0000*6A
$GPGSA,A,3,20,19,18,30,13,17,15,28,24,,,,1.9,1.2,1.5*31
$GPGSV,3,1,12,13,67,158,24,15,63,273,29,28,55,066,27,24,28,271,25*7D
$GPGSV,3,2,12,19,28,102,28,17,25,121,32,20,25,238,20,18,22,307,22*71
$GPGSV,3,3,12,30,20,084,24,10,07,335,,11,05,046,,05,04,195,31*7B
$GPRMC,190441.000,A,5240.2311,N,01332.7202,E,0.00,248.26,221215,,,A*6C
$GPVTG,248.26,T,,M,0.00,N,0.0,K,A*07
$GPGGA,190442.000,5240.2311,N,01332.7202,E,1,09,1.2,53.6,M,44.3,M,,0000*69
$GPRMC,190442.000,A,5240.2311,N,01332.7202,E,0.00,248.26,221215,,,A*6F
$GPVTG,248.26,T,,M,0.00,N,0.0,K,A*07
$GPGGA,190443.000,5240.2311,N,01332.7202,E,1,09,1.2,53.6,M,44.3,M,,0000*68
$GPRMC,190443.000,A,5240.2311,N,01332.7202,E,0.00,248.26,221215,,,A*6E
$GPVTG,248.26,T,,M,0.00,N,0.0,K,A*07
$GPGGA,190444.000,5240.2311,N,01332.7202,E,1,09,1.2,53.6,M,44.3,M,,0000*6F
$GPRMC,190444.000,A,5240.2311,N,01332.7202,E,0.00,248.26,221215,,,A*69
$GPVTG,248.26,T,,M,0.00,N,0.0,K,A*07
$GPGGA,190445.000,5240.2311,N,01332.7202,E,1,09,1.2,53.6,M,44.3,M,,0000*6E
$GPRMC,190445.000,A,5240.2311,N,01332.7202,E,0.00,248.26,221215,,,A*68
$GPVTG,248.26,T,,M,0.00,N,0.0,K,A*07
$GPGGA,190446.000,5240.2311,N,01332.7202,E,1,09,1.2,53.6,M,44.3,M,,0000*6D
$GPGSA,A,3,20,19,18,30,13,17,15,28,24,,,,1.9,1.2,1.5*31
$GPGSV,3,1,12,13,67,158,26,15,63,273,28,28,55,066,27,24,28,271,26*7D
$GPGSV,3,2,12,19,28,102,27,17,25,121,33,20,25,238,18,18,22,307,22*74
$GPGSV,3,3,12,30,20,084,24,10,07,335,,11,05,046,,05,04,195,31*7B
$GPRMC,190446.000,A,5240.2311,N,01332.7202,E,0.00,248.26,221215,,,A*6B
$GPVTG,248.26,T,,M,0.00,N,0.0,K,A*07
$GPGGA,190447.000,5240.2311,N,01332.7202,E,1,09,1.2,53.6,M,44.3,M,,0000*6C
$GPRMC,190447.000,A,5240.2311,N,01332.7202,E,0.00,248.26,221215,,,A*6A
$GPVTG,248.26,T,,M,0.00,N,0.0,K,A*07
$GPGGA,190448.000,5240.2311,N,01332.7202,E,1,09,1.2,53.6,M,44.3,M,,0000*63
$GPRMC,190448.000,A,5240.2311,N,01332.7202,E,0.00,248.26,221215,,,A*65
$GPVTG,248.26,T,,M,0.00,N,0.0,K,A*07
$GPGGA,190449.000,5240.2311,N,01332.7202,E,1,09,1.2,53.6,M,44.3,M,,0000*62
$GPRMC,190449.000,A,5240.2311,N,01332.7202,E,0.00,248.26,221215,,,A*64
$GPVTG,248.26,T,,M,0.00,N,0.0,K,A*07
$GPGGA,190450.000,5240.2311,N,01332.7202,E,1,09,1.2,53.6,M,44.3,M,,0000*6A
$GPRMC,190450.000,A,5240.2311,N,01332.7202,E,0.00,248.26,221215,,,A*6C
$GPVTG,248.26,T,,M,0.00,N,0.0,K,A*07
$GPGGA,190451.000,5240.2311,N,01332.7202,E,1,09,1.2,53.6,M,44.3,M,,0000*6B
$GPGSA,A,3,20,19,18,30,13,17,15,28,24,,,,1.9,1.2,1.5*31
$GPGSV,3,1,12,13,67,158,27,15,63,273,27,28,55,066,27,24,28,271,26*73
$GPGSV,3,2,12,19,28,102,26,17,25,121,33,20,25,238,18,18,22,307,22*75
$GPGSV,3,3,12,30,20,084,24,10,07,335,,11,05,046,,05,04,195,31*7B
$GPRMC,190451.000,A,5240.2311,N,01332.7202,E,0.00,248.26,221215,,,A*6D
$GPVTG,248.26,T,,M,0.00,N,0.0,K,A*07
$GPGGA,190452.000,5240.2311,N,01332.7202,E,1,09,1.2,53.6,M,44.3,M,,0000*68
$GPRMC,190452.000,A,5240.2311,N,01332.7202,E,0.00,248.26,221215,,,A*6E
$GPVTG,248.26,T,,M,0.00,N,0.0,K,A*07
$GPGGA,190453.000,5240.2311,N,01332.7202,E,1,09,1.2,53.6,M,44.3,M,,0000*69
$GPRMC,190453.000,A,5240.2311,N,01332.7202,E,0.00,248.26,221215,,,A*6F
$GPVTG,248.26,T,,M,0.00,N,0.0,K,A*07
$GPGGA,190454.000,5240.2311,N,01332.7202,E,1,09,1.2,53.6,M,44.3,M,,0000*6E
$GPRMC,190454.000,A,5240.2311,N,01332.7202,E,0.00,248.26,221215,,,A*68
$GPVTG,248.26,T,,M,0.00,N,0.0,K,A*07
$GPGGA,190455.000,5240.2311,N,01332.7202,E,1,09,1.2,53.6,M,44.3,M,,0000*6F
$GPRMC,190455.000,A,5240.2311,N,01332.7202,E,0.00,248.26,221215,,,A*69
$GPVTG,248.26,T,,M,0.00,N,0.0,K,A*07
$GPGGA,190456.000,5240.2311,N,01332.7202,E,1,09,1.2,53.6,M,44.3,M,,0000*6C
$GPGSA,A,3,20,19,18,30,13,17,15,28,24,,,,1.9,1.2,1.5*31
$GPGSV,3,1,12,13,67,158,18,15,63,273,22,28,55,066,28,24,28,271,21*72
$GPGSV,3,2,12,19,28,102,24,17,25,121,25,20,25,238,20,18,22,307,22*7B
$GPGSV,3,3,12,30,20,084,20,10,07,335,,11,05,046,,05,04,195,32*7C
$GPRMC,190456.000,A,5240.2311,N,01332.7202,E,0.00,248.26,221215,,,A*6A
$GPVTG,248.26,T,,M,0.00,N,0.0,K,A*07
$GPGGA,190457.000,5240.2311,N,01332.7202,E,1,09,1.2,53.6,M,44.3,M,,0000*6D
$GPRMC,190457.000,A,5240.2311,N,01332.7202,E,0.00,248.26,221215,,,A*6B
$GPVTG,248.26,T,,M,0.00,N,0.0,K,A*07
$GPGGA,190458.000,5240.2311,N,01332.7202,E,1,09,1.2,53.6,M,44.3,M,,0000*62
$GPRMC,190458.000,A,5240.2311,N,01332.7202,E,0.00,248.26,221215,,,A*64
$GPVTG,248.26,T,,M,0.00,N,0.0,K,A*07
$GPGGA,190459.000,5240.2311,N,01332.7202,E,1,09,1.2,53.6,M,44.3,M,,0000*63
$GPRMC,190459.000,A,5240.2311,N,01332.7202,E,0.00,248.26,221215,,,A*65
$GPVTG,248.26,T,,M,0.00,N,0.0,K,A*07
$GPGGA,190500.000,5240.2311,N,01332.7202,E,1,09,1.2,53.6,M,44.3,M,,0000*6E
$GPRMC,190500.000,A,5240.2311,N,01332.7202,E,0.00,248.26,221215,,,A*68
$GPVTG,248.26,T,,M,0.00,N,0.0,K,A*07
$GPGGA,190501.000,5240.2311,N,01332.7202,E,1,09,1.2,53.6,M,44.3,M,,0000*6F
$GPGSA,A,3,20,19,18,30,13,17,15,28,24,,,,1.9,1.2,1.5*31
$GPGSV,3,1,12,13,67,158,26,15,63,273,21,28,55,066,28,24,28,271,20*7D
$GPGSV,3,2,12,19,28,102,25,17,25,121,26,20,25,238,19,18,22,307,22*73
$GPGSV,3,3,12,30,20,084,20,10,07,335,,11,05,046,,05,04,195,32*7C
$GPRMC,190501.000,A,5240.2311,N,01332.7202,E,0.00,248.26,221215,,,A*69
$GPVTG,248.26,T,,M,0.00,N,0.0,K,A*07
$GPGGA,190502.000,5240.2311,N,01332.7202,E,1,09,1.2,53.6,M,44.3,M,,0000*6C
$GPRMC,190502.000,A,5240.2311,N,01332.7202,E,0.00,248.26,221215,,,A*6A
$GPVTG,248.26,T,,M,0.00,N,0.0,K,A*07
$GPGGA,190503.000,5240.2311,N,01332.7202,E,1,09,1.2,53.6,M,44.3,M,,0000*6D
$GPRMC,190503.000,A,5240.2311,N,01332.7202,E,0.00,248.26,221215,,,A*6B
$GPVTG,248.26,T,,M,0.00,N,0.0,K,A*07
$GPGGA,190504.000,5240.2311,N,01332.7202,E,1,09,1.2,53.6,M,44.3,M,,0000*6A
$GPRMC,190504.000,A,5240.2311,N,01332.7202,E,0.00,248.26,221215,,,A*6C
$GPVTG,248.26,T,,M,0.00,N,0.0,K,A*07
$GPGGA,190505.000,5240.2311,N,01332.7202,E,1,09,1.2,53.6,M,44.3,M,,0000*6B
$GPRMC,190505.000,A,5240.2311,N,01332.7202,E,0.00,248.26,221215,,,A*6D
$GPVTG,248.26,T,,M,0.00,N,0.0,K,A*07
$GPGGA,190506.000,5240.2311,N,01332.7202,E,1,09,1.2,53.6,M,44.3,M,,0000*68
$GPGSA,A,3,20,19,18,30,13,17,15,28,24,,,,1.9,1.2,1.5*31
$GPGSV,3,1,12,13,66,158,27,15,64,272,22,28,55,065,29,24,28,271,22*78
$GPGSV,3,2,12,19,28,101,24,17,26,121,27,20,25,238,20,18,23,307,22*78
$GPGSV,3,3,12,30,20,084,20,10,07,335,,11,05,046,,05,03,195,33*7A
$GPRMC,190506.000,A,5240.2311,N,01332.7202,E,0.00,248.26,221215,,,A*6E
$GPVTG,248.26,T,,M,0.00,N,0.0,K,A*07
$GPGGA,190507.000,5240.2311,N,01332.7202,E,1,09,1.2,53.6,M,44.3,M,,0000*69
$GPRMC,190507.000,A,5240.2311,N,01332.7202,E,0.00,248.26,221215,,,A*6F
$GPVTG,248.26,T,,M,0.00,N,0.0,K,A*07
$GPGGA,190508.000,5240.2311,N,01332.7202,E,1,09,1.2,53.6,M,44.3,M,,0000*66
$GPRMC,190508.000,A,5240.2311,N,01332.7202,E,0.00,248.26,221215,,,A*60
$GPVTG,248.26,T,,M,0.00,N,0.0,K,A*07
$GPGGA,190509.000,5240.2311,N,01332.7202,E,1,09,1.2,53.6,M,44.3,M,,0000*67
$GPRMC,190509.000,A,5240.2311,N,01332.7202,E,0.00,248.26,221215,,,A*61
$GPVTG,248.26,T,,M,0.00,N,0.0,K,A*07
$GPGGA,190510.000,5240.2311,N,01332.7202,E,1,09,1.2,53.6,M,44.3,M,,0000*6F
$GPRMC,190510.000,A,5240.2311,N,01332.7202,E,0.00,248.26,221215,,,A*69
$GPVTG,248.26,T,,M,0.00,N,0.0,K,A*07
$GPGGA,190511.000,5240.2311,N,01332.7202,E,1,09,1.2,53.6,M,44.3,M,,0000*6E
$GPGSA,A,3,20,19,18,30,13,17,15,28,24,,,,1.9,1.2,1.5*31
$GPGSV,3,1,12,13,66,158,27,15,64,272,22,28,55,065,29,24,28,271,22*78
$GPGSV,3,2,12,19,28,101,24,17,26,121,27,20,25,238,21,18,23,307,23*78
$GPGSV,3,3,12,30,20,084,20,10,07,335,,11,05,046,14,05,03,195,33*7F
$GPRMC,190511.000,A,5240.2311,N,01332.7202,E,0.00,248.26,221215,,,A*68
$GPVTG,248.26,T,,M,0.00,N,0.0,K,A*07
$GPGGA,190512.000,5240.2311,N,01332.7202,E,1,09,1.2,53.6,M,44.3,M,,0000*6D
$GPRMC,190512.000,A,5240.2311,N,01332.7202,E,0.00,248.26,221215,,,A*6B
$GPVTG,248.26,T,,M,0.00,N,0.0,K,A*07
$GPGGA,190513.000,5240.2311,N,01332.7202,E,1,09,1.2,53.6,M,44.3,M,,0000*6C
$GPRMC,190513.000,A,5240.2311,N,01332.7202,E,0.00,248.26,221215,,,A*6A
$GPVTG,248.26,T,,M,0.00,N,0.0,K,A*07
$GPGGA,190514.000,5240.2311,N,01332.7202,E,1,09,1.2,53.6,M,44.3,M,,0000*6B
$GPRMC,190514.000,A,5240.2311,N,01332.7202,E,0.00,248.26,221215,,,A*6D
$GPVTG,248.26,T,,M,0.00,N,0.0,K,A*07
$GPGGA,190515.000,5240.2311,N,01332.7202,E,1,09,1.2,53.6,M,44.3,M,,0000*6A
$GPRMC,190515.000,A,5240.2311,N,01332.7202,E,0.00,248.26,221215,,,A*6C
$GPVTG,248.26,T,,M,0.00,N,0.0,K,A*07
$GPGGA,190516.000,5240.2311,N,01332.7202,E,1,09,1.2,53.6,M,44.3,M,,0000*69
$GPGSA,A,3,20,19,18,30,13,17,15,28,24,,,,1.9,1.2,1.5*31
$GPGSV,3,1,12,13,66,158,26,15,64,272,23,28,55,065,29,24,28,271,21*7B
$GPGSV,3,2,12,19,28,101,25,17,26,121,27,20,25,238,22,18,23,307,24*7D
$GPGSV,3,3,12,30,20,084,20,10,07,335,,11,05,046,14,05,03,195,33*7F
$GPRMC,190516.000,A,5240.2311,N,01332.7202,E,0.00,248.26,221215,,,A*6F
$GPVTG,248.26,T,,M,0.00,N,0.0,K,A*07
$GPGGA,190517.000,5240.2311,N,01332.7202,E,1,09,1.2,53.6,M,44.3,M,,0000*68
$GPRMC,190517.000,A,5240.2311,N,01332.7202,E,0.00,248.26,221215,,,A*6E
$GPVTG,248.26,T,,M,0.00,N,0.0,K,A*07
$GPGGA,190518.000,5240.2311,N,01332.7202,E,1,09,1.2,53.6,M,44.3,M,,0000*67
$GPRMC,190518.000,A,5240.2311,N,01332.7202,E,0.00,248.26,221215,,,A*61
$GPVTG,248.26,T,,M,0.00,N,0.0,K,A*07
$GPGGA,190519.000,5240.2311,N,01332.7202,E,1,09,1.2,53.6,M,44.3,M,,0000*66
$GPRMC,190519.000,A,5240.2311,N,01332.7202,E,0.00,248.26,221215,,,A*60
$GPVTG,248.26,T,,M,0.00,N,0.0,K,A*07
$GPGGA,190520.000,5240.2311,N,01332.7202,E,1,09,1.2,53.6,M,44.3,M,,0000*6C
$GPRMC,190520.000,A,5240.2311,N,01332.7202,E,0.00,248.26,221215,,,A*6A
$GPVTG,248.26,T,,M,0.00,N,0.0,K,A*07
$GPGGA,190521.000,5240.2311,N,01332.7202,E,1,09,1.2,53.6,M,44.3,M,,0000*6D
$GPGSA,A,3,20,19,18,30,13,17,15,28,24,,,,1.9,1.2,1.5*31
$GPGSV,3,1,12,13,66,158,26,15,64,272,23,28,55,065,29,24,28,271,22*78
$GPGSV,3,2,12,19,28,101,25,17,26,121,27,20,25,238,21,18,23,307,24*7E
$GPGSV,3,3,12,30,20,084,19,10,07,335,,11,05,046,15,05,03,195,33*74
$GPRMC,190521.000,A,5240.2311,N,01332.7202,E,0.00,248.26,221215,,,A*6B
$GPVTG,248.26,T,,M,0.00,N,0.0,K,A*07
$GPGGA,190522.000,5240.2311,N,01332.7202,E,1,09,1.2,53.6,M,44.3,M,,0000*6E
$GPRMC,190522.000,A,5240.2311,N,01332.7202,E,0.00,248.26,221215,,,A*68
$GPVTG,248.26,T,,M,0.00,N,0.0,K,A*07
$GPGGA,190523.000,5240.2311,N,01332.7202,E,1,09,1.2,53.6,M,44.3,M,,0000*6F
$GPRMC,190523.000,A,5240.2311,N,01332.7202,E,0.00,248.26,221215,,,A*69
$GPVTG,248.26,T,,M,0.00,N,0.0,K,A*07
$GPGGA,190524.000,5240.2311,N,01332.7202,E,1,09,1.2,53.6,M,44.3,M,,0000*68
$GPRMC,190524.000,A,5240.2311,N,01332.7202,E,0.00,248.26,221215,,,A*6E
$GPVTG,248.26,T,,M,0.00,N,0.0,K,A*07
$GPGGA,190525.000,5240.2311,N,01332.7202,E,1,09,1.2,53.6,M,44.3,M,,0000*69
$GPRMC,190525.000,A,5240.2311,N,01332.7202,E,0.00,248.26,221215,,,A*6F
$GPVTG,248.26,T,,M,0.00,N,0.0,K,A*07
$GPGGA,190526.000,5240.2311,N,01332.7202,E,1,09,1.2,53.6,M,44.3,M,,0000*6A
$GPGSA,A,3,20,19,18,30,13,17,15,28,24,,,,1.9,1.2,1.5*31
$GPGSV,3,1,12,13,66,158,25,15,64,272,23,28,55,065,28,24,28,271,23*7B
$GPGSV,3,2,12,19,28,101,26,17,26,121,26,20,25,238,13,18,23,307,24*7D
$GPGSV,3,3,12,30,20,084,19,10,07,335,,11,05,046,15,05,03,195,33*74
$GPRMC,190526.000,A,5240.2311,N,01332.7202,E,0.00,248.26,221215,,,A*6C
$GPVTG,248.26,T,,M,0.00,N,0.0,K,A*07
$GPGGA,190612.000,5240.2320,N,01332.7099,E,1,10,1.0,79.0,M,44.3,M,,0000*68
$GPRMC,190612.000,A,5240.2320,N,01332.7099,E,0.00,,221215,,,A*7E
$GPVTG,,T,,M,0.00,N,0.0,K,A*13
$GPGGA,190613.000,5240.2320,N,01332.7099,E,1,10,1.0,79.0,M,44.3,M,,0000*69
$GPRMC,190613.000,A,5240.2320,N,01332.7099,E,0.00,,221215,,,A*7F
$GPVTG,,T,,M,0.00,N,0.0,K,A*13
$GPGGA,190614.000,5240.2320,N,01332.7099,E,1,10,1.0,79.0,M,44.3,M,,0000*6E
$GPRMC,190614.000,A,5240.2320,N,01332.7099,E,0.00,,221215,,,A*78
$GPVTG,,T,,M,0.00,N,0.0,K,A*13
$GPGGA,190615.000,5240.2320,N,01332.7099,E,1,09,1.1,79.0,M,44.3,M,,0000*66
$GPGSA,A,3,13,20,19,30,28,18,24,10,15,,,,1.8,1.1,1.5*34
$GPGSV,3,1,12,13,66,158,22,15,64,271,29,28,55,065,36,24,29,272,24*7F
$GPGSV,3,2,12,19,28,101,26,17,26,120,,20,24,238,28,18,23,307,26*73
$GPGSV,3,3,12,30,19,084,20,10,07,334,28,11,05,046,,05,03,195,30*78
$GPRMC,190615.000,A,5240.2320,N,01332.7099,E,0.00,,221215,,,A*79
$GPVTG,,T,,M,0.00,N,0.0,K,A*13
$GPGGA,190616.000,5240.2320,N,01332.7099,E,1,09,1.1,79.0,M,44.3,M,,0000*65
$GPRMC,190616.000,A,5240.2320,N,01332.7099,E,0.00,,221215,,,A*7A
$GPVTG,,T,,M,0.00,N,0.0,K,A*13
$GPGGA,190617.000,5240.2320,N,01332.7099,E,1,10,1.0,79.0,M,44.3,M,,0000*6D
$GPRMC,190617.000,A,5240.2320,N,01332.7099,E,0.00,,221215,,,A*7B
$GPVTG,,T,,M,0.00,N,0.0,K,A*13
$GPGGA,190618.000,5240.2320,N,01332.7099,E,1,09,1.0,79.0,M,44.3,M,,0000*6A
$GPRMC,190618.000,A,5240.2320,N,01332.7099,E,0.00,,221215,,,A*74
$GPVTG,,T,,M,0.00,N,0.0,K,A*13
$GPGGA,190619.000,5240.2320,N,01332.7099,E,1,10,1.0,79.0,M,44.3,M,,0000*63
$GPRMC,190619.000,A,5240.2320,N,01332.7099,E,0.00,,221215,,,A*75
$GPVTG,,T,,M,0.00,N,0.0,K,A*13
$GPGGA,190620.000,5240.2320,N,01332.7099,E,1,10,1.0,79.0,M,44.3,M,,0000*69
$GPGSA,A,3,13,20,17,19,30,28,18,24,10,15,,,1.7,1.0,1.4*3D
$GPGSV,3,1,12,13,66,157,15,15,64,271,29,28,54,065,35,24,29,272,24*76
$GPGSV,3,2,12,19,28,101,18,17,26,120,33,20,24,237,29,18,23,307,27*71
$GPGSV,3,3,12,30,19,084,20,10,07,334,28,11,05,046,,05,03,195,30*78
$GPRMC,190620.000,A,5240.2320,N,01332.7099,E,0.00,,221215,,,A*7F
$GPVTG,,T,,M,0.00,N,0.0,K,A*13
$GPGGA,190621.000,5240.2320,N,01332.7099,E,1,10,1.0,79.0,M,44.3,M,,0000*68
$GPRMC,190621.000,A,5240.2320,N,01332.7099,E,0.00,,221215,,,A*7E
$GPVTG,,T,,M,0.00,N,0.0,K,A*13
$GPGGA,190622.000,5240.2320,N,01332.7099,E,1,10,1.0,79.0,M,44.3,M,,0000*6B
$GPRMC,190622.000,A,5240.2320,N,01332.7099,E,0.00,,221215,,,A*7D
$GPVTG,,T,,M,0.00,N,0.0,K,A*13
$GPGGA,190623.000,5240.2320,N,01332.7099,E,1,10,1.0,79.0,M,44.3,M,,0000*6A
$GPRMC,190623.000,A,5240.2320,N,01332.7099,E,0.00,,221215,,,A*7C
$GPVTG,,T,,M,0.00,N,0.0,K,A*13
$GPGGA,190624.000,5240.2320,N,01332.7099,E,1,10,1.0,79.0,M,44.3,M,,0000*6D
$GPRMC,190624.000,A,5240.2320,N,01332.7099,E,0.00,,221215,,,A*7B
$GPVTG,,T,,M,0.00,N,0.0,K,A*13
$GPGGA,190625.000,5240.2320,N,01332.7099,E,1,10,1.0,79.0,M,44.3,M,,0000*6C
$GPGSA,A,3,13,20,17,19,30,28,18,24,10,15,,,1.7,1.0,1.4*3D
$GPGSV,3,1,12,13,66,157,22,15,64,271,28,28,54,065,35,24,29,272,24*73
$GPGSV,3,2,12,19,28,101,22,17,26,120,33,20,24,237,29,18,23,307,28*77
$GPGSV,3,3,12,30,19,084,20,10,07,334,27,11,05,046,,05,03,195,31*76
$GPRMC,190625.000,A,5240.2320,N,01332.7099,E,0.00,,221215,,,A*7A
$GPVTG,,T,,M,0.00,N,0.0,K,A*13
$GPGGA,190626.000,5240.2320,N,01332.7099,E,1,10,1.0,79.0,M,44.3,M,,0000*6F
$GPRMC,190626.000,A,5240.2320,N,01332.7099,E,0.00,,221215,,,A*79
$GPVTG,,T,,M,0.00,N,0.0,K,A*13
$GPGGA,190627.000,5240.2320,N,01332.7099,E,1,10,1.0,79.0,M,44.3,M,,0000*6E
$GPRMC,190627.000,A,5240.2320,N,01332.7099,E,0.00,,221215,,,A*78
$GPVTG,,T,,M,0.00,N,0.0,K,A*13
$GPGGA,190628.000,5240.2320,N,01332.7099,E,1,10,1.0,79.0,M,44.3,M,,0000*61
$GPRMC,190628.000,A,5240.2320,N,01332.7099,E,0.00,,221215,,,A*77
$GPVTG,,T,,M,0.00,N,0.0,K,A*13
$GPGGA,190629.000,5240.2320,N,01332.7099,E,1,10,1.0,79.0,M,44.3,M,,0000*60
$GPRMC,190629.000,A,5240.2320,N,01332.7099,E,0.00,,221215,,,A*76
$GPVTG,,T,,M,0.00,N,0.0,K,A*13
$GPGGA,190630.000,5240.2320,N,01332.7099,E,1,10,1.0,79.0,M,44.3,M,,0000*68
$GPGSA,A,3,13,20,17,19,30,28,18,24,10,15,,,1.7,1.0,1.4*3D
$GPGSV,3,1,12,13,66,157,25,15,64,271,28,28,54,065,36,24,29,272,23*70
$GPGSV,3,2,12,19,28,101,25,17,26,120,32,20,24,237,30,18,23,306,29*79
$GPGSV,3,3,12,30,19,084,21,10,07,334,26,11,05,046,,05,03,195,32*75
$GPRMC,190630.000,A,5240.2320,N,01332.7099,E,0.00,,221215,,,A*7E
$GPVTG,,T,,M,0.00,N,0.0,K,A*13
$GPGGA,190631.000,5240.2320,N,01332.7099,E,1,10,1.0,79.0,M,44.3,M,,0000*69
$GPRMC,190631.000,A,5240.2320,N,01332.7099,E,0.00,,221215,,,A*7F
$GPVTG,,T,,M,0.00,N,0.0,K,A*13
$GPGGA,190632.000,5240.2320,N,01332.7099,E,1,10,1.0,79.0,M,44.3,M,,0000*6A
$GPRMC,190632.000,A,5240.2320,N,01332.7099,E,0.00,,221215,,,A*7C
$GPVTG,,T,,M,0.00,N,0.0,K,A*13
$GPGGA,190633.000,5240.2320,N,01332.7099,E,1,10,1.0,79.0,M,44.3,M,,0000*6B
$GPRMC,190633.000,A,5240.2320,N,01332.7099,E,0.00,,221215,,,A*7D
$GPVTG,,T,,M,0.00,N,0.0,K,A*13
$GPGGA,190634.000,5240.2320,N,01332.7099,E,1,10,1.0,79.0,M,44.3,M,,0000*6C
$GPRMC,190634.000,A,5240.2320,N,01332.7099,E,0.00,,221215,,,A*7A
$GPVTG,,T,,M,0.00,N,0.0,K,A*13
$GPGGA,190635.000,5240.2320,N,01332.7099,E,1,10,1.0,79.0,M,44.3,M,,0000*6D
$GPGSA,A,3,13,20,17,19,30,28,18,24,10,15,,,1.7,1.0,1.4*3D
$GPGSV,3,1,12,13,66,157,25,15,64,271,28,28,54,065,36,24,29,272,22*71
$GPGSV,3,2,12,19,28,101,25,17,26,120,31,20,24,237,30,18,23,306,29*7A
$GPGSV,3,3,12,30,19,084,21,10,07,334,25,11,05,046,,05,03,195,32*76
$GPRMC,190635.000,A,5240.2320,N,01332.7099,E,0.00,,221215,,,A*7B
$GPVTG,,T,,M,0.00,N,0.0,K,A*13
$GPGGA,190636.000,5240.2320,N,01332.7099,E,1,10,1.0,79.0,M,44.3,M,,0000*6E
$GPRMC,190636.000,A,5240.2320,N,01332.7099,E,0.00,,221215,,,A*78
$GPVTG,,T,,M,0.00,N,0.0,K,A*13
$GPGGA,190637.000,5240.2320,N,01332.7099,E,1,10,1.0,79.0,M,44.3,M,,0000*6F
$GPRMC,190637.000,A,5240.2320,N,01332.7099,E,0.00,,221215,,,A*79
$GPVTG,,T,,M,0.00,N,0.0,K,A*13
$GPGGA,190638.000,5240.2320,N,01332.7099,E,1,10,1.0,79.0,M,44.3,M,,0000*60
$GPRMC,190638.000,A,5240.2320,N,01332.7099,E,0.00,,221215,,,A*76
$GPVTG,,T,,M,0.00,N,0.0,K,A*13
$GPGGA,190639.000,5240.2320,N,01332.7099,E,1,10,1.0,79.0,M,44.3,M,,0000*61
$GPRMC,190639.000,A,5240.2320,N,01332.7099,E,0.00,,221215,,,A*77
$GPVTG,,T,,M,0.00,N,0.0,K,A*13
$GPGGA,190640.000,5240.2320,N,01332.7099,E,1,10,1.0,79.0,M,44.3,M,,0000*6F
$GPGSA,A,3,13,20,17,19,30,28,18,24,10,15,,,1.7,1.0,1.4*3D
$GPGSV,3,1,12,13,66,157,24,15,64,271,27,28,54,065,36,24,29,272,21*7C
$GPGSV,3,2,12,19,28,101,25,17,26,120,30,20,24,237,30,18,23,306,29*7B
$GPGSV,3,3,12,30,19,084,20,10,07,334,25,11,05,046,,05,03,195,32*77
$GPRMC,190640.000,A,5240.2320,N,01332.7099,E,0.00,,221215,,,A*79
$GPVTG,,T,,M,0.00,N,0.0,K,A*13
$GPGGA,190641.000,5240.2320,N,01332.7099,E,1,10,1.0,79.0,M,44.3,M,,0000*6E
$GPRMC,190641.000,A,5240.2320,N,01332.7099,E,0.00,,221215,,,A*78
$GPVTG,,T,,M,0.00,N,0.0,K,A*13
$GPGGA,190642.000,5240.2320,N,01332.7099,E,1,10,1.0,79.0,M,44.3,M,,0000*6D
$GPRMC,190642.000,A,5240.2320,N,01332.7099,E,0.00,,221215,,,A*7B
$GPVTG,,T,,M,0.00,N,0.0,K,A*13
$GPGGA,190643.000,5240.2320,N,01332.7099,E,1,10,1.0,79.0,M,44.3,M,,0000*6C
$GPRMC,190643.000,A,5240.2320,N,01332.7099,E,0.00,,221215,,,A*7A
$GPVTG,,T,,M,0.00,N,0.0,K,A*13
$GPGGA,190644.000,5240.2320,N,01332.7099,E,1,10,1.0,79.0,M,44.3,M,,0000*6B
$GPRMC,190644.000,A,5240.2320,N,01332.7099,E,0.00,,221215,,,A*7D
$GPVTG,,T,,M,0.00,N,0.0,K,A*13
$GPGGA,190645.000,5240.2320,N,01332.7099,E,1,10,1.0,79.0,M,44.3,M,,0000*6A
$GPGSA,A,3,13,20,17,19,30,28,18,24,10,15,,,1.7,1.0,1.4*3D
$GPGSV,3,1,12,13,66,157,23,15,64,271,27,28,54,065,36,24,29,272,20*7A
$GPGSV,3,2,12,19,28,101,24,17,26,120,30,20,24,237,30,18,23,306,30*72
$GPGSV,3,3,12,30,19,084,19,10,07,334,26,11,05,046,,05,03,195,32*7E
$GPRMC,190645.000,A,5240.2320,N,01332.7099,E,0.00,,221215,,,A*7C
$GPVTG,,T,,M,0.00,N,0.0,K,A*13
$GPGGA,190646.000,5240.2320,N,01332.7099,E,1,10,1.0,79.0,M,44.3,M,,0000*69
$GPRMC,190646.000,A,5240.2320,N,01332.7099,E,0.00,,221215,,,A*7F
$GPVTG,,T,,M,0.00,N,0.0,K,A*13
$GPGGA,190647.000,5240.2320,N,01332.7099,E,1,10,1.0,79.0,M,44.3,M,,0000*68
$GPRMC,190647.000,A,5240.2320,N,01332.7099,E,0.00,,221215,,,A*7E
$GPVTG,,T,,M,0.00,N,0.0,K,A*13
$GPGGA,190648.000,5240.2320,N,01332.7099,E,1,10,1.0,79.0,M,44.3,M,,0000*67
$GPRMC,190648.000,A,5240.2320,N,01332.7099,E,0.00,,221215,,,A*71
$GPVTG,,T,,M,0.00,N,0.0,K,A*13
$GPGGA,190649.000,5240.2320,N,01332.7099,E,1,10,1.0,79.0,M,44.3,M,,0000*66
$GPRMC,190649.000,A,5240.2320,N,01332.7099,E,0.00,,221215,,,A*70
$GPVTG,,T,,M,0.00,N,0.0,K,A*13
$GPGGA,190650.000,5240.2320,N,01332.7099,E,1,10,1.0,79.0,M,44.3,M,,0000*6E
$GPGSA,A,3,13,20,17,19,30,28,18,24,10,15,,,1.7,1.0,1.4*3D
$GPGSV,3,1,12,13,65,157,23,15,64,271,20,28,54,065,36,24,29,272,19*74
$GPGSV,3,2,12,19,28,100,24,17,26,120,30,20,24,237,32,18,23,306,30*71
$GPGSV,3,3,12,30,19,084,17,10,08,334,27,11,05,045,,05,03,195,32*7D
$GPRMC,190650.000,A,5240.2320,N,01332.7099,E,0.00,,221215,,,A*78
$GPVTG,,T,,M,0.00,N,0.0,K,A*13
$GPGGA,190651.000,5240.2320,N,01332.7099,E,1,10,1.0,79.0,M,44.3,M,,0000*6F
$GPRMC,190651.000,A,5240.2320,N,01332.7099,E,0.00,,221215,,,A*79
$GPVTG,,T,,M,0.00,N,0.0,K,A*13
$GPGGA,190652.000,5240.2320,N,01332.7099,E,1,10,1.0,79.0,M,44.3,M,,0000*6C
$GPRMC,190652.000,A,5240.2320,N,01332.7099,E,0.00,,221215,,,A*7A
$GPVTG,,T,,M,0.00,N,0.0,K,A*13
$GPGGA,190653.000,5240.2320,N,01332.7099,E,1,10,1.0,79.0,M,44.3,M,,0000*6D
$GPRMC,190653.000,A,5240.2320,N,01332.7099,E,0.00,,221215,,,A*7B
$GPVTG,,T,,M,0.00,N,0.0,K,A*13
$GPGGA,190654.000,5240.2320,N,01332.7099,E,1,10,1.0,79.0,M,44.3,M,,0000*6A
$GPRMC,190654.000,A,5240.2320,N,01332.7099,E,0.00,,221215,,,A*7C
$GPVTG,,T,,M,0.00,N,0.0,K,A*13
$GPGGA,190655.000,5240.2320,N,01332.7099,E,1,10,1.0,79.0,M,44.3,M,,0000*6B
$GPGSA,A,3,13,20,17,19,30,28,18,24,10,15,,,1.7,1.0,1.4*3D
$GPGSV,3,1,12,13,65,157,23,15,64,271,21,28,54,065,36,24,29,272,18*74
$GPGSV,3,2,12,19,28,100,23,17,26,120,30,20,24,237,32,18,23,306,31*77
$GPGSV,3,3,12,30,19,084,15,10,08,334,26,11,05,045,,05,03,195,32*7E
$GPRMC,190655.000,A,5240.2320,N,01332.7099,E,0.00,,221215,,,A*7D
$GPVTG,,T,,M,0.00,N,0.0,K,A*13
$GPGGA,190656.000,5240.2320,N,01332.7099,E,1,10,1.0,79.0,M,44.3,M,,0000*68
$GPRMC,190656.000,A,5240.2320,N,01332.7099,E,0.00,,221215,,,A*7E
$GPVTG,,T,,M,0.00,N,0.0,K,A*13
$GPGGA,190657.000,5240.2320,N,01332.7099,E,1,10,1.0,79.0,M,44.3,M,,0000*69
$GPRMC,190657.000,A,5240.2320,N,01332.7099,E,0.00,,221215,,,A*7F
$GPVTG,,T,,M,0.00,N,0.0,K,A*13
$GPGGA,190658.000,5240.2320,N,01332.7099,E,1,10,1.0,79.0,M,44.3,M,,0000*66
$GPRMC,190658.000,A,5240.2320,N,01332.7099,E,0.00,,221215,,,A*70
$GPVTG,,T,,M,0.00,N,0.0,K,A*13
$GPGGA,190659.000,5240.2320,N,01332.7099,E,1,10,1.0,79.0,M,44.3,M,,0000*67
$GPRMC,190659.000,A,5240.2320,N,01332.7099,E,0.00,,221215,,,A*71
$GPVTG,,T,,M,0.00,N,0.0,K,A*13
$GPGGA,190700.000,5240.2320,N,01332.7099,E,1,10,1.0,79.0,M,44.3,M,,0000*6A
$GPGSA,A,3,13,20,17,19,30,28,18,24,10,15,,,1.7,1.0,1.4*3D
$GPGSV,3,1,12,13,65,157,22,15,64,271,22,28,54,065,36,24,29,272,18*76
$GPGSV,3,2,12,19,28,100,22,17,26,120,31,20,24,237,33,18,23,306,31*76
$GPGSV,3,3,12,30,19,084,15,10,08,334,26,11,05,045,,05,03,195,33*7F
$GPRMC,190700.000,A,5240.2320,N,01332.7099,E,0.00,,221215,,,A*7C
$GPVTG,,T,,M,0.00,N,0.0,K,A*13
$GPGGA,190701.000,5240.2320,N,01332.7099,E,1,10,1.0,79.0,M,44.3,M,,0000*6B
$GPRMC,190701.000,A,5240.2320,N,01332.7099,E,0.00,,221215,,,A*7D
$GPVTG,,T,,M,0.00,N,0.0,K,A*13
$GPGGA,190702.000,5240.2320,N,01332.7099,E,1,10,1.0,79.0,M,44.3,M,,0000*68
$GPRMC,190702.000,A,5240.2320,N,01332.7099,E,0.00,,221215,,,A*7E
$GPVTG,,T,,M,0.00,N,0.0,K,A*13
$GPGGA,190703.000,5240.2320,N,01332.7099,E,1,09,1.0,79.0,M,44.3,M,,0000*61
$GPRMC,190703.000,A,5240.2320,N,01332.7099,E,0.00,,221215,,,A*7F
$GPVTG,,T,,M,0.00,N,0.0,K,A*13
$GPGGA,190704.000,5240.2320,N,01332.7099,E,1,09,1.0,79.0,M,44.3,M,,0000*66
$GPRMC,190704.000,A,5240.2320,N,01332.7099,E,0.00,,221215,,,A*78
$GPVTG,,T,,M,0.00,N,0.0,K,A*13
$GPGGA,190705.000,5240.2320,N,01332.7099,E,1,09,1.0,79.0,M,44.3,M,,0000*67
$GPGSA,A,3,13,20,17,30,28,18,24,10,15,,,,1.7,1.0,1.4*35
$GPGSV,3,1,12,13,65,157,18,15,64,271,22,28,54,065,35,24,29,272,20*77
$GPGSV,3,2,12,19,28,100,,17,26,120,32,20,24,237,33,18,23,306,31*75
$GPGSV,3,3,12,30,19,084,14,10,08,334,27,11,05,045,,05,03,195,33*7F
$GPRMC,190705.000,A,5240.2320,N,01332.7099,E,0.00,,221215,,,A*79
$GPVTG,,T,,M,0.00,N,0.0,K,A*13
$GPGGA,190706.000,5240.2320,N,01332.7099,E,1,09,1.0,79.0,M,44.3,M,,0000*64
$GPRMC,190706.000,A,5240.2320,N,01332.7099,E,0.00,,221215,,,A*7A
$GPVTG,,T,,M,0.00,N,0.0,K,A*13
$GPGGA,190707.000,5240.2320,N,01332.7099,E,1,09,1.0,79.0,M,44.3,M,,0000*65
$GPRMC,190707.000,A,5240.2320,N,01332.7099,E,0.00,,221215,,,A*7B
$GPVTG,,T,,M,0.00,N,0.0,K,A*13
$GPGGA,190708.000,5240.2320,N,01332.7099,E,1,09,1.0,79.0,M,44.3,M,,0000*6A
$GPRMC,190708.000,A,5240.2320,N,01332.7099,E,0.00,,221215,,,A*74
$GPVTG,,T,,M,0.00,N,0.0,K,A*13
$GPGGA,190709.000,5240.2320,N,01332.7099,E,1,09,1.0,79.0,M,44.3,M,,0000*6B
$GPRMC,190709.000,A,5240.2320,N,01332.7099,E,0.00,,221215,,,A*75
$GPVTG,,T,,M,0.00,N,0.0,K,A*13
$GPGGA,190710.000,5240.2320,N,01332.7099,E,1,09,1.0,79.0,M,44.3,M,,0000*63
$GPGSA,A,3,13,20,17,30,28,18,24,10,15,,,,1.7,1.0,1.4*35
$GPGSV,3,1,12,13,65,157,24,15,64,271,23,28,54,065,35,24,29,272,23*7A
$GPGSV,3,2,12,19,28,100,,17,26,120,33,20,24,237,33,18,23,306,32*77
$GPGSV,3,3,12,30,19,084,13,10,08,334,27,11,05,045,,05,03,195,33*78
$GPRMC,190710.000,A,5240.2320,N,01332.7099,E,0.00,,221215,,,A*7D
$GPVTG,,T,,M,0.00,N,0.0,K,A*13
$GPGGA,190711.000,5240.2320,N,01332.7099,E,1,08,1.1,79.0,M,44.3,M,,0000*62
$GPRMC,190711.000,A,5240.2320,N,01332.7099,E,0.00,,221215,,,A*7C
$GPVTG,,T,,M,0.00,N,0.0,K,A*13
$GPGGA,190712.000,5240.2320,N,01332.7099,E,1,08,1.1,79.0,M,44.3,M,,0000*61
$GPRMC,190712.000,A,5240.2320,N,01332.7099,E,0.00,,221215,,,A*7F
$GPVTG,,T,,M,0.00,N,0.0,K,A*13
$GPGGA,190713.000,5240.2320,N,01332.7099,E,1,08,1.1,79.0,M,44.3,M,,0000*60
$GPRMC,190713.000,A,5240.2320,N,01332.7099,E,0.00,,221215,,,A*7E
$GPVTG,,T,,M,0.00,N,0.0,K,A*13
