$SDHDG,80.0,,,0.9,E*04
$SDMTW,39.2,C*0C
$SDVLW,,N,2794.0,N,1556.3,N,1503.2,N*4D
$SDVHW,81.0,T,80.0,M,4.4,N,8.3,K*48
$WIMWD,23.6,T,22.6,M,3.9,N,2.0,M*53
$WIMWV,297.8,R,0.0,N,A*27
$WIMWV,302.6,T,3.9,N,A*28
$SDHDG,80.0,,,0.9,E*04
$IIXDR,C,C,,C,AIRTEMP,A,13.4,D,HEEL,A,2.8,D,TRIM,P,,B,BARO,A,A,0.7,D,RUDDER*10
$GPGGA,114941,5229.6021,N,00517.7879,E,1,12,0.50,2,M,47.0,M,,*68
$GPGLL,5229.6021,N,00517.7879,E,114941,A,A*44
$GPGSA,A,3,05,07,08,10,16,18,20,21,26,27,29,74,0.90,0.50,0.70*04
$GPGSV,3,1,12,05,04,023,29,07,08,336,36,08,06,275,27,10,10,162,31*73
$GPGSV,3,2,12,16,66,285,47,18,31,131,44,20,32,065,46,21,65,079,46*76
$GPGSV,3,3,12,26,68,195,46,27,40,278,46,29,12,089,38,74,11,187,49*73
$GPRMC,114941,A,5229.6021,N,00517.7879,E,4.1,90.4,150816,1.0,E,A*2A
$GPVTG,90.4,T,89.4,M,4.1,N,7.6,K,A*2F
$GPZDA,114941,15,08,2016,-02,00*66
$GPAAM,,,,N,*38
$GPAPB,,,,,,,,,,,,,,,N*26
$GPBOD,,T,,M,,*47
$SDHDG,80.0,,,0.9,E*04
$GPRMB,,,,,,,,,,,,,,N*04
$SDHDG,80.0,,,0.9,E*04
$SDHDG,80.0,,,0.9,E*04
$SDHDG,80.0,,,0.9,E*04
$SDHDG,80.0,,,0.9,E*04
$SDHDG,79.9,,,0.9,E*0B
$SDHDG,79.9,,,0.9,E*0B
$SDHDG,79.8,,,0.9,E*0A
$GPXTE,,,,,N,N*5E
$SDDBT,12.8,f,3.9,M,2.1,F*34
$SDDPT,3.9,0.4,*75
$SDHDG,79.8,,,0.9,E*0A
$SDMTW,39.2,C*0C
$SDVLW,,N,2794.0,N,1556.3,N,1503.2,N*4D
$SDVHW,80.7,T,79.8,M,4.5,N,8.3,K*41
$WIMWD,23.3,T,22.3,M,3.9,N,2.0,M*53
$WIMWV,298.1,R,0.0,N,A*21
$WIMWV,302.5,T,3.9,N,A*2B
$SDHDG,79.8,,,0.9,E*0A
$IIXDR,C,C,,C,AIRTEMP,A,13.5,D,HEEL,A,2.6,D,TRIM,P,,B,BARO,A,A,0.7,D,RUDDER*1F
$GPGGA,114942,5229.6021,N,00517.7897,E,1,12,0.50,2,M,47.0,M,,*6B
$GPGLL,5229.6021,N,00517.7897,E,114942,A,A*47
$GPGSA,A,3,05,07,08,10,16,18,20,21,26,27,29,74,0.90,0.50,0.70*04
$GPGSV,3,1,12,05,04,023,29,07,08,336,36,08,06,275,25,10,10,162,32*72
$GPGSV,3,2,12,16,66,285,47,18,31,131,45,20,32,065,46,21,65,079,46*77
$GPGSV,3,3,12,26,68,195,46,27,40,278,45,29,12,089,40,74,11,187,48*7E
$GPRMC,114942,A,5229.6021,N,00517.7897,E,4.1,90.3,150816,1.0,E,A*2E
$GPVTG,90.3,T,89.4,M,4.1,N,7.6,K,A*28
$GPZDA,114942,15,08,2016,-02,00*65
$GPAAM,,,,N,*38
$GPAPB,,,,,,,,,,,,,,,N*26
$GPBOD,,T,,M,,*47
$SDHDG,79.8,,,0.9,E*0A
$GPRMB,,,,,,,,,,,,,,N*04
$SDHDG,79.7,,,0.9,E*05
$SDHDG,79.7,,,0.9,E*05
!AIVDM,1,1,0,,B3aQ5100=p5u4l7PHW0sswP00000,0*18
$SDHDG,79.7,,,0.9,E*05
$SDHDG,79.8,,,0.9,E*0A
$SDHDG,79.8,,,0.9,E*0A
$SDHDG,79.8,,,0.9,E*0A
$SDHDG,79.8,,,0.9,E*0A
$GPXTE,,,,,N,N*5E
$SDDBT,12.8,f,3.9,M,2.1,F*34
$SDDPT,3.9,0.4,*75
$SDHDG,79.8,,,0.9,E*0A
$SDMTW,39.2,C*0C
$SDVLW,,N,2794.0,N,1556.3,N,1503.2,N*4D
$SDVHW,80.8,T,79.8,M,4.5,N,8.3,K*4E
$WIMWD,23.2,T,22.3,M,3.9,N,2.0,M*52
$WIMWV,299.9,R,0.0,N,A*28
$WIMWV,302.4,T,3.9,N,A*2A
$SDHDG,79.8,,,0.9,E*0A
$IIXDR,C,C,,C,AIRTEMP,A,13.5,D,HEEL,A,3.2,D,TRIM,P,,B,BARO,A,A,0.7,D,RUDDER*1A
!AIVDM,1,1,1,,19NSITh0P1PFCu`Mw5iW5G342000,0*61
$GPGGA,114943,5229.6022,N,00517.7915,E,1,12,0.50,3,M,47.0,M,,*63
$GPGLL,5229.6022,N,00517.7915,E,114943,A,A*4E
$GPGSA,A,3,05,07,08,10,16,18,20,21,26,27,29,74,0.90,0.50,0.70*04
$GPGSV,3,1,12,05,04,023,29,07,08,336,36,08,06,275,25,10,10,162,32*72
$GPGSV,3,2,12,16,66,285,47,18,31,131,45,20,32,065,46,21,65,079,46*77
$GPGSV,3,3,12,26,68,195,46,27,40,278,45,29,12,089,40,74,11,187,48*7E
$GPRMC,114943,A,5229.6022,N,00517.7915,E,4.1,89.3,150816,1.0,E,A*2F
$GPVTG,89.3,T,88.4,M,4.1,N,7.6,K,A*21
$GPZDA,114943,15,08,2016,-02,00*64
$GPAAM,,,,N,*38
$GPAPB,,,,,,,,,,,,,,,N*26
$GPBOD,,T,,M,,*47
$SDHDG,79.8,,,0.9,E*0A
$GPRMB,,,,,,,,,,,,,,N*04
$SDHDG,79.7,,,0.9,E*05
$SDHDG,79.6,,,0.9,E*04
$SDHDG,79.6,,,0.9,E*04
$SDHDG,79.4,,,0.9,E*06
$SDHDG,79.4,,,0.9,E*06
$SDHDG,79.3,,,0.9,E*01
$SDHDG,79.2,,,0.9,E*00
$GPXTE,,,,,N,N*5E
$SDDBT,12.8,f,3.9,M,2.1,F*34
$SDDPT,3.9,0.4,*75
$SDHDG,79.1,,,0.9,E*03
$SDMTW,39.2,C*0C
$SDVLW,,N,2794.0,N,1556.3,N,1503.2,N*4D
$SDVHW,80.1,T,79.1,M,4.5,N,8.4,K*49
$WIMWD,23.4,T,22.4,M,3.9,N,2.0,M*53
$WIMWV,305.1,R,0.0,N,A*24
$WIMWV,303.1,T,3.9,N,A*2E
$SDHDG,79.1,,,0.9,E*03
$IIXDR,C,C,,C,AIRTEMP,A,12.9,D,HEEL,A,2.9,D,TRIM,P,,B,BARO,A,A,0.7,D,RUDDER*1D
$GPGGA,114944,5229.6022,N,00517.7936,E,1,12,0.50,3,M,47.0,M,,*65
$GPGLL,5229.6022,N,00517.7936,E,114944,A,A*48
$GPGSA,A,3,05,07,08,10,16,18,20,21,26,27,29,74,0.90,0.50,0.70*04
$GPGSV,3,1,12,05,04,023,28,07,08,336,37,08,06,275,23,10,10,162,33*75
$GPGSV,3,2,12,16,66,285,46,18,31,131,45,20,32,065,46,21,65,079,47*77
$GPGSV,3,3,12,26,68,195,48,27,40,278,44,29,12,089,40,74,11,187,49*70
$GPRMC,114944,A,5229.6022,N,00517.7936,E,4.2,90.9,150816,1.0,E,A*28
$GPVTG,90.9,T,90.0,M,4.2,N,7.8,K,A*23
$GPZDA,114944,15,08,2016,-02,00*63
$GPAAM,,,,N,*38
$GPAPB,,,,,,,,,,,,,,,N*26
$GPBOD,,T,,M,,*47
$SDHDG,79.1,,,0.9,E*03
$GPRMB,,,,,,,,,,,,,,N*04
$SDHDG,79.2,,,0.9,E*00
$SDHDG,79.2,,,0.9,E*00
$SDHDG,79.2,,,0.9,E*00
!AIVDM,1,1,2,,13`oU;PP17PH8RPN1V62@OwH2000,0*0D
$SDHDG,79.1,,,0.9,E*03
$SDHDG,79.1,,,0.9,E*03
$SDHDG,79.0,,,0.9,E*02
$SDHDG,78.9,,,0.9,E*0A
$GPXTE,,,,,N,N*5E
$SDDBT,12.8,f,3.9,M,2.1,F*34
$SDDPT,3.9,0.4,*75
$SDMTW,39.2,C*0C
$SDHDG,78.7,,,0.9,E*04
$SDVLW,,N,2794.0,N,1556.3,N,1503.2,N*4D
$SDVHW,79.7,T,78.7,M,4.5,N,8.4,K*4E
$WIMWD,23.5,T,22.5,M,4.0,N,2.0,M*5D
$WIMWV,303.7,R,0.0,N,A*24
$WIMWV,303.6,T,4.0,N,A*27
$IIXDR,C,C,,C,AIRTEMP,A,13.2,D,HEEL,A,3.1,D,TRIM,P,,B,BARO,A,A,0.7,D,RUDDER*1E
$SDHDG,78.7,,,0.9,E*04
$GPGGA,114945,5229.6022,N,00517.7956,E,1,12,0.50,3,M,47.0,M,,*62
$GPGLL,5229.6022,N,00517.7956,E,114945,A,A*4F
$GPGSA,A,3,05,07,08,10,16,18,20,21,26,27,29,74,0.90,0.50,0.70*04
$GPGSV,3,1,12,05,04,023,29,07,08,336,38,08,06,275,22,10,10,162,38*71
$GPGSV,3,2,12,16,66,285,47,18,31,131,45,20,32,065,46,21,65,079,46*77
$GPGSV,3,3,12,26,68,195,44,27,40,278,44,29,12,089,41,74,11,187,48*7C
$GPRMC,114945,A,5229.6022,N,00517.7956,E,4.2,90.0,150816,1.0,E,A*26
$GPVTG,90.0,T,89.1,M,4.2,N,7.8,K,A*23
$GPZDA,114945,15,08,2016,-02,00*62
$GPAAM,,,,N,*38
$GPAPB,,,,,,,,,,,,,,,N*26
$GPBOD,,T,,M,,*47
$SDHDG,78.6,,,0.9,E*05
$GPRMB,,,,,,,,,,,,,,N*04
$SDHDG,78.6,,,0.9,E*05
$SDHDG,78.6,,,0.9,E*05
$SDHDG,78.6,,,0.9,E*05
$SDHDG,78.6,,,0.9,E*05
$SDHDG,78.5,,,0.9,E*06
$SDHDG,78.5,,,0.9,E*06
$SDHDG,78.4,,,0.9,E*07
$GPXTE,,,,,N,N*5E
$SDDBT,12.8,f,3.9,M,2.1,F*34
$SDDPT,3.9,0.4,*75
$SDMTW,39.1,C*0F
$SDHDG,78.3,,,0.9,E*00
$SDVLW,,N,2794.0,N,1556.3,N,1503.2,N*4D
$SDVHW,79.2,T,78.3,M,4.5,N,8.4,K*4F
$WIMWD,23.4,T,22.4,M,4.0,N,2.0,M*5D
$WIMWV,300.8,R,0.0,N,A*28
$WIMWV,304.0,T,4.0,N,A*26
$IIXDR,C,C,,C,AIRTEMP,A,13.3,D,HEEL,A,2.6,D,TRIM,P,,B,BARO,A,A,0.6,D,RUDDER*18
$GPGGA,114946,5229.6021,N,00517.7976,E,1,12,0.50,3,M,47.0,M,,*60
$SDHDG,78.3,,,0.9,E*00
$GPGLL,5229.6021,N,00517.7976,E,114946,A,A*4D
$GPGSA,A,3,05,07,08,10,16,18,20,21,26,27,29,74,0.90,0.50,0.70*04
$GPGSV,3,1,12,05,04,023,29,07,08,336,38,08,06,275,22,10,10,162,38*71
$GPGSV,3,2,12,16,66,285,47,18,31,131,45,20,32,065,46,21,65,079,46*77
$GPGSV,3,3,12,26,68,195,44,27,40,278,44,29,12,089,41,74,11,187,48*7C
$GPRMC,114946,A,5229.6021,N,00517.7976,E,4.2,89.4,150816,1.0,E,A*28
$GPVTG,89.4,T,88.4,M,4.2,N,7.7,K,A*24
$GPZDA,114946,15,08,2016,-02,00*61
$GPAAM,,,,N,*38
$GPAPB,,,,,,,,,,,,,,,N*26
$GPBOD,,T,,M,,*47
$SDHDG,78.2,,,0.9,E*01
$GPRMB,,,,,,,,,,,,,,N*04
$SDHDG,78.2,,,0.9,E*01
$SDHDG,78.1,,,0.9,E*02
$SDHDG,78.0,,,0.9,E*03
$SDHDG,78.0,,,0.9,E*03
$SDHDG,77.9,,,0.9,E*05
$SDHDG,77.9,,,0.9,E*05
$SDHDG,77.8,,,0.9,E*04
$GPXTE,,,,,N,N*5E
$SDDBT,12.8,f,3.9,M,2.1,F*34
$SDDPT,3.9,0.4,*75
$SDMTW,39.2,C*0C
$SDHDG,77.7,,,0.9,E*0B
$SDVLW,,N,2794.0,N,1556.3,N,1503.2,N*4D
$SDVHW,78.6,T,77.7,M,4.6,N,8.6,K*40
$WIMWD,23.5,T,22.5,M,4.0,N,2.0,M*5D
$WIMWV,306.6,R,0.0,N,A*20
$WIMWV,304.7,T,4.0,N,A*21
$IIXDR,C,C,,C,AIRTEMP,A,13.1,D,HEEL,A,2.9,D,TRIM,P,,B,BARO,A,A,0.7,D,RUDDER*14
$GPGGA,114947,5229.6020,N,00517.7995,E,1,12,0.50,3,M,47.0,M,,*6D
$GPGLL,5229.6020,N,00517.7995,E,114947,A,A*40
!AIVDM,1,1,3,,13bFNF0P00PHQFdN5maP0?wN2000,0*62
$SDHDG,77.6,,,0.9,E*0A
$GPGSA,A,3,05,07,08,10,16,18,20,21,26,27,29,74,0.90,0.50,0.70*04
$GPGSV,3,1,12,05,04,023,28,07,08,336,39,08,06,275,29,10,10,162,36*74
$GPGSV,3,2,12,16,66,285,46,18,31,131,45,20,32,065,46,21,65,079,47*77
$GPGSV,3,3,12,26,68,195,48,27,40,278,43,29,12,089,41,74,11,187,48*77
$GPRMC,114947,A,5229.6020,N,00517.7995,E,4.2,89.6,150816,1.0,E,A*27
$GPVTG,89.6,T,88.7,M,4.2,N,7.8,K,A*2A
$GPZDA,114947,15,08,2016,-02,00*60
$GPAAM,,,,N,*38
$GPAPB,,,,,,,,,,,,,,,N*26
$GPBOD,,T,,M,,*47
$SDHDG,77.6,,,0.9,E*0A
$GPRMB,,,,,,,,,,,,,,N*04
!AIVDM,1,1,4,,13aI92@P00PHS3rN6@u00?wN2000,0*21
$SDHDG,77.5,,,0.9,E*09
!AIVDM,1,1,5,,B3`e>?@0<@65:17PF00SowP00000,0*29
!AIVDM,1,1,6,,13aC3<hP00PHl2jN2kV8gOwP2000,0*1E
$SDHDG,77.5,,,0.9,E*09
$SDHDG,77.5,,,0.9,E*09
$SDHDG,77.5,,,0.9,E*09
!AIVDM,1,1,7,,B3aIi000:`5sj2WPRjC3WwP00000,0*1B
$SDHDG,77.5,,,0.9,E*09
$SDHDG,77.5,,,0.9,E*09
$SDHDG,77.5,,,0.9,E*09
$GPXTE,,,,,N,N*5E
$SDDBT,12.8,f,3.9,M,2.1,F*34
$SDDPT,3.9,0.4,*75
$SDMTW,39.2,C*0C
$SDVLW,,N,2794.0,N,1556.3,N,1503.2,N*4D
$SDHDG,77.5,,,0.9,E*09
$SDVHW,78.4,T,77.5,M,4.5,N,8.4,K*41
$WIMWD,23.5,T,22.5,M,4.0,N,2.0,M*5D
$WIMWV,306.9,R,0.0,N,A*2F
$WIMWV,305.0,T,4.0,N,A*27
$IIXDR,C,C,,C,AIRTEMP,A,13.4,D,HEEL,A,2.8,D,TRIM,P,,B,BARO,A,A,0.8,D,RUDDER*1F
$GPGGA,114948,5229.6020,N,00517.8015,E,1,12,0.50,3,M,47.0,M,,*6C
$GPGLL,5229.6020,N,00517.8015,E,114948,A,A*41
$GPGSA,A,3,05,07,08,10,16,18,20,21,26,27,29,74,0.90,0.50,0.70*04
$GPGSV,3,1,12,05,04,023,27,07,08,336,39,08,06,275,32,10,10,162,38*7F
$GPGSV,3,2,12,16,66,285,46,18,31,131,45,20,32,065,46,21,65,079,47*77
$GPGSV,3,3,12,26,68,195,47,27,40,278,43,29,12,089,40,74,11,187,48*79
$SDHDG,77.4,,,0.9,E*08
$GPRMC,114948,A,5229.6020,N,00517.8015,E,4.2,88.7,150816,1.0,E,A*26
$GPVTG,88.7,T,87.8,M,4.2,N,7.7,K,A*25
$GPZDA,114948,15,08,2016,-02,00*6F
$GPAAM,,,,N,*38
$GPAPB,,,,,,,,,,,,,,,N*26
$GPBOD,,T,,M,,*47
$GPRMB,,,,,,,,,,,,,,N*04
$SDHDG,77.4,,,0.9,E*08
$SDHDG,77.4,,,0.9,E*08
!AIVDM,1,1,8,,13aIk>g000PHm8BN2oV>479P2000,0*6B
!AIVDM,1,1,9,,B3`ekv@09P5wl<7QC9RskwP00000,0*7D
$SDHDG,77.4,,,0.9,E*08
$SDHDG,77.3,,,0.9,E*0F
$SDHDG,77.2,,,0.9,E*0E
$SDHDG,77.2,,,0.9,E*0E
!AIVDM,1,1,0,,B3`mtw@08P5wlI7PqTJR?wP00000,0*25
$SDHDG,77.1,,,0.9,E*0D
$GPXTE,,,,,N,N*5E
$SDDBT,12.8,f,3.9,M,2.1,F*34
$SDDPT,3.9,0.4,*75
$SDHDG,77.0,,,0.9,E*0C
$SDMTW,39.2,C*0C
$SDVLW,,N,2794.0,N,1556.3,N,1503.2,N*4D
$SDVHW,77.9,T,76.9,M,4.5,N,8.4,K*4E
$SDHDG,76.9,,,0.9,E*04
$WIMWD,23.2,T,22.3,M,4.0,N,2.0,M*5C
$WIMWV,300.9,R,0.0,N,A*29
$WIMWV,305.2,T,4.0,N,A*25
$IIXDR,C,C,,C,AIRTEMP,A,12.8,D,HEEL,A,2.7,D,TRIM,P,,B,BARO,A,A,0.8,D,RUDDER*1D
$GPGGA,114949,5229.6021,N,00517.8036,E,1,12,0.50,3,M,47.0,M,,*6D
$GPGLL,5229.6021,N,00517.8036,E,114949,A,A*40
$GPGSA,A,3,05,07,08,10,16,18,20,21,26,27,29,74,0.90,0.50,0.70*04
$GPGSV,3,1,12,05,04,023,27,07,08,336,39,08,06,275,32,10,10,162,38*7F
$GPGSV,3,2,12,16,66,285,46,18,31,131,45,20,32,065,46,21,65,079,47*77
$GPGSV,3,3,12,26,68,195,47,27,40,278,43,29,12,089,40,74,11,187,48*79
$GPRMC,114949,A,5229.6021,N,00517.8036,E,4.2,87.5,150816,1.0,E,A*2A
$SDHDG,76.9,,,0.9,E*04
$GPVTG,87.5,T,86.6,M,4.2,N,7.8,K,A*28
$GPZDA,114949,15,08,2016,-02,00*6E
$GPAAM,,,,N,*38
$GPAPB,,,,,,,,,,,,,,,N*26
$GPBOD,,T,,M,,*47
$GPRMB,,,,,,,,,,,,,,N*04
$SDHDG,76.8,,,0.9,E*05
$SDHDG,76.8,,,0.9,E*05
$SDHDG,76.8,,,0.9,E*05
!AIVDM,1,1,1,,B3`hA@h07p62aBWQ7cC=gwP00000,0*4A
$SDHDG,76.8,,,0.9,E*05
$SDHDG,76.8,,,0.9,E*05
$SDHDG,76.7,,,0.9,E*0A
$SDHDG,76.6,,,0.9,E*0B
$GPXTE,,,,,N,N*5E
$SDDBT,12.8,f,3.9,M,2.1,F*34
$SDDPT,3.9,0.4,*75
$SDHDG,76.5,,,0.9,E*08
$SDMTW,39.2,C*0C
$SDVLW,,N,2794.0,N,1556.3,N,1503.2,N*4D
$SDVHW,77.4,T,76.4,M,4.6,N,8.5,K*4C
$WIMWD,23.1,T,22.1,M,4.0,N,2.0,M*5D
$SDHDG,76.4,,,0.9,E*09
$WIMWV,303.6,R,0.0,N,A*25
$WIMWV,305.5,T,4.0,N,A*22
$IIXDR,C,C,,C,AIRTEMP,A,12.5,D,HEEL,A,2.9,D,TRIM,P,,B,BARO,A,A,0.8,D,RUDDER*1E
$GPGGA,114950,5229.6021,N,00517.8056,E,1,12,0.50,2,M,47.0,M,,*62
$GPGLL,5229.6021,N,00517.8056,E,114950,A,A*4E
$GPGSA,A,3,05,07,08,10,16,18,20,21,26,27,29,74,0.90,0.50,0.70*04
$GPGSV,3,1,12,05,04,023,29,07,08,336,39,08,06,275,32,10,10,162,38*71
$GPGSV,3,2,12,16,66,285,46,18,31,131,45,20,32,065,45,21,65,079,47*74
$GPGSV,3,3,12,26,68,195,47,27,40,278,44,29,12,089,40,74,11,187,47*71
$GPRMC,114950,A,5229.6021,N,00517.8056,E,4.2,86.7,150816,1.0,E,A*27
!AIVDM,1,1,2,,13aFdc?P0RPGfOdN3:V:CgwV2000,0*0C
$GPVTG,86.7,T,85.8,M,4.2,N,7.7,K,A*29
$SDHDG,76.3,,,0.9,E*0E
$GPZDA,114950,15,08,2016,-02,00*66
$GPAAM,,,,N,*38
$GPAPB,,,,,,,,,,,,,,,N*26
$GPBOD,,T,,M,,*47
$GPRMB,,,,,,,,,,,,,,N*04
$SDHDG,76.3,,,0.9,E*0E
$SDHDG,76.2,,,0.9,E*0F
$SDHDG,76.2,,,0.9,E*0F
!AIVDM,1,1,3,,13`ekT0P00PGpqVMwccf4?wT2000,0*3A
!AIVDM,1,1,4,,H3`hA@lT0000000@3jlkj00P6220,0*0B
!AIVDM,1,1,5,,H3`hA@mJ0000000@3jlkj00P6220,0*15
$SDHDG,76.2,,,0.9,E*0F
$SDHDG,76.2,,,0.9,E*0F
$SDHDG,76.2,,,0.9,E*0F
$SDHDG,76.2,,,0.9,E*0F
$GPXTE,,,,,N,N*5E
$SDDBT,12.8,f,3.9,M,2.1,F*34
$SDDPT,3.9,0.4,*75
$SDHDG,76.2,,,0.9,E*0F
$SDMTW,39.2,C*0C
$SDVLW,,N,2794.0,N,1556.3,N,1503.2,N*4D
$SDVHW,77.2,T,76.2,M,4.5,N,8.4,K*4E
$WIMWD,22.9,T,22.0,M,4.0,N,2.0,M*55
$WIMWV,302.4,R,0.0,N,A*26
$WIMWV,305.7,T,4.0,N,A*20
$SDHDG,76.2,,,0.9,E*0F
$IIXDR,C,C,,C,AIRTEMP,A,12.7,D,HEEL,A,3.1,D,TRIM,P,,B,BARO,A,A,0.8,D,RUDDER*15
$GPGGA,114951,5229.6023,N,00517.8076,E,1,12,0.50,3,M,47.0,M,,*62
$GPGLL,5229.6023,N,00517.8076,E,114951,A,A*4F
$GPGSA,A,3,05,07,08,10,16,18,20,21,26,27,29,74,0.90,0.50,0.70*04
$GPGSV,3,1,12,05,04,023,29,07,08,336,39,08,06,275,32,10,10,162,38*71
$GPGSV,3,2,12,16,66,285,46,18,31,131,45,20,32,065,45,21,65,079,47*74
$GPGSV,3,3,12,26,68,195,47,27,40,278,44,29,12,089,40,74,11,187,47*71
$GPRMC,114951,A,5229.6023,N,00517.8076,E,4.1,85.4,150816,1.0,E,A*25
$GPVTG,85.4,T,84.5,M,4.1,N,7.7,K,A*26
$GPZDA,114951,15,08,2016,-02,00*67
$GPAAM,,,,N,*38
$SDHDG,76.2,,,0.9,E*0F
$GPAPB,,,,,,,,,,,,,,,N*26
$GPBOD,,T,,M,,*47
$GPRMB,,,,,,,,,,,,,,N*04
$SDHDG,76.2,,,0.9,E*0F
$SDHDG,76.1,,,0.9,E*0C
$SDHDG,76.1,,,0.9,E*0C
$SDHDG,76.1,,,0.9,E*0C
$SDHDG,76.0,,,0.9,E*0D
$SDHDG,75.9,,,0.9,E*07
$SDHDG,75.9,,,0.9,E*07
$GPXTE,,,,,N,N*5E
$SDDBT,12.8,f,3.9,M,2.1,F*34
$SDDPT,3.9,0.4,*75
$SDHDG,75.8,,,0.9,E*06
$SDMTW,39.2,C*0C
$SDVLW,,N,2794.0,N,1556.3,N,1503.2,N*4D
$SDVHW,76.7,T,75.8,M,4.6,N,8.6,K*42
$WIMWD,22.8,T,21.9,M,4.0,N,2.1,M*5F
$WIMWV,309.5,R,0.0,N,A*2C
$WIMWV,305.9,T,4.0,N,A*2E
$SDHDG,75.8,,,0.9,E*06
$IIXDR,C,C,,C,AIRTEMP,A,12.0,D,HEEL,A,2.9,D,TRIM,P,,B,BARO,A,A,0.8,D,RUDDER*1B
$GPGGA,114952,5229.6023,N,00517.8095,E,1,12,0.50,3,M,47.0,M,,*6C
$GPGLL,5229.6023,N,00517.8095,E,114952,A,A*41
$GPGSA,A,3,05,07,08,10,16,18,20,21,26,27,29,74,0.90,0.50,0.70*04
$GPGSV,3,1,12,05,04,023,32,07,08,336,38,08,06,275,33,10,10,162,40*74
$GPGSV,3,2,12,16,66,285,46,18,31,131,44,20,32,065,45,21,65,079,46*74
$GPGSV,3,3,12,26,68,195,45,27,40,278,44,29,12,089,38,74,11,187,47*7C
$GPRMC,114952,A,5229.6023,N,00517.8095,E,4.2,85.7,150816,1.0,E,A*2B
$GPVTG,85.7,T,84.8,M,4.2,N,7.7,K,A*2B
$GPZDA,114952,15,08,2016,-02,00*64
$GPAAM,,,,N,*38
$SDHDG,75.8,,,0.9,E*06
$GPAPB,,,,,,,,,,,,,,,N*26
$GPBOD,,T,,M,,*47
$GPRMB,,,,,,,,,,,,,,N*04
$SDHDG,75.8,,,0.9,E*06
$SDHDG,75.9,,,0.9,E*07
$SDHDG,75.9,,,0.9,E*07
$SDHDG,76.0,,,0.9,E*0D
$SDHDG,76.0,,,0.9,E*0D
$SDHDG,76.0,,,0.9,E*0D
$SDHDG,76.0,,,0.9,E*0D
$GPXTE,,,,,N,N*5E
$SDDBT,12.8,f,3.9,M,2.1,F*34
$SDDPT,3.9,0.4,*75
$SDHDG,76.0,,,0.9,E*0D
$SDMTW,39.2,C*0C
$SDVLW,,N,2794.0,N,1556.3,N,1503.2,N*4D
$SDVHW,76.9,T,76.0,M,4.6,N,8.6,K*47
$WIMWD,23.0,T,22.1,M,4.0,N,2.1,M*5D
$WIMWV,304.6,R,0.0,N,A*22
$WIMWV,306.0,T,4.0,N,A*24
$SDHDG,75.9,,,0.9,E*07
$IIXDR,C,C,,C,AIRTEMP,A,12.3,D,HEEL,A,2.7,D,TRIM,P,,B,BARO,A,A,0.7,D,RUDDER*19
$GPGGA,114953,5229.6023,N,00517.8114,E,1,12,0.50,3,M,47.0,M,,*65
$GPGLL,5229.6023,N,00517.8114,E,114953,A,A*48
$GPGSA,A,3,05,07,08,10,16,18,20,21,26,27,29,74,0.90,0.50,0.70*04
$GPGSV,3,1,12,05,03,023,32,07,08,336,37,08,06,275,31,10,10,162,41*7F
$GPGSV,3,2,12,16,66,285,46,18,31,131,42,20,32,065,45,21,65,079,46*72
$GPGSV,3,3,12,26,68,195,45,27,40,278,44,29,12,089,38,74,11,187,47*7C
$GPRMC,114953,A,5229.6023,N,00517.8114,E,4.1,84.9,150816,1.0,E,A*2E
$GPVTG,84.9,T,84.0,M,4.1,N,7.6,K,A*2E
$GPZDA,114953,15,08,2016,-02,00*65
$GPAAM,,,,N,*38
$SDHDG,75.9,,,0.9,E*07
$GPAPB,,,,,,,,,,,,,,,N*26
$GPBOD,,T,,M,,*47
$GPRMB,,,,,,,,,,,,,,N*04
$SDHDG,75.8,,,0.9,E*06
$SDHDG,75.8,,,0.9,E*06
$SDHDG,75.8,,,0.9,E*06
$SDHDG,75.8,,,0.9,E*06
$SDHDG,75.8,,,0.9,E*06
$SDHDG,75.8,,,0.9,E*06
!AIVDM,1,1,6,,13aB:nhP0uPHeA2N2oIapwwd2000,0*7A
$SDHDG,75.9,,,0.9,E*07
$GPXTE,,,,,N,N*5E
$SDDBT,12.8,f,3.9,M,2.1,F*34
$SDDPT,3.9,0.4,*75
$SDMTW,39.2,C*0C
$SDHDG,75.9,,,0.9,E*07
$SDVLW,,N,2794.0,N,1556.3,N,1503.2,N*4D
$SDVHW,76.9,T,75.9,M,4.6,N,8.6,K*4D
$WIMWD,22.9,T,22.0,M,4.0,N,2.1,M*54
$WIMWV,303.6,R,0.0,N,A*25
$WIMWV,306.1,T,4.0,N,A*25
$IIXDR,C,C,,C,AIRTEMP,A,12.2,D,HEEL,A,2.9,D,TRIM,P,,B,BARO,A,A,0.8,D,RUDDER*19
$SDHDG,76.0,,,0.9,E*0D
$GPGGA,114954,5229.6024,N,00517.8131,E,1,12,0.50,3,M,47.0,M,,*62
$GPGLL,5229.6024,N,00517.8131,E,114954,A,A*4F
$GPGSA,A,3,05,07,08,10,16,18,20,21,26,27,29,74,0.90,0.50,0.70*04
$GPGSV,3,1,12,05,03,023,32,07,08,336,37,08,06,275,31,10,10,162,41*7F
$GPGSV,3,2,12,16,66,285,46,18,31,131,42,20,32,065,45,21,65,079,46*72
$GPGSV,3,3,12,26,68,195,45,27,40,278,44,29,12,089,38,74,11,187,47*7C
$GPRMC,114954,A,5229.6024,N,00517.8131,E,4.1,84.7,150816,1.0,E,A*27
$GPVTG,84.7,T,83.8,M,4.1,N,7.6,K,A*2F
$GPZDA,114954,15,08,2016,-02,00*62
$GPAAM,,,,N,*38
$GPAPB,,,,,,,,,,,,,,,N*26
$GPBOD,,T,,M,,*47
$SDHDG,76.0,,,0.9,E*0D
$GPRMB,,,,,,,,,,,,,,N*04
$SDHDG,76.0,,,0.9,E*0D
$SDHDG,76.1,,,0.9,E*0C
!AIVDM,1,1,7,,13`oU;PP17PH8bnN1VORBgwd2000,0*19
$SDHDG,76.1,,,0.9,E*0C
$SDHDG,76.1,,,0.9,E*0C
$SDHDG,76.2,,,0.9,E*0F
$SDHDG,76.2,,,0.9,E*0F
$SDHDG,76.2,,,0.9,E*0F
!AIVDM,1,1,8,,13aFeNPP13PGw4fN1:>Qnwwf2000,0*41
$GPXTE,,,,,N,N*5E
$SDDBT,12.8,f,3.9,M,2.1,F*34
$SDDPT,3.9,0.4,*75
$SDMTW,39.2,C*0C
$SDHDG,76.2,,,0.9,E*0F
$SDVLW,,N,2794.0,N,1556.3,N,1503.2,N*4D
$SDVHW,77.2,T,76.2,M,4.6,N,8.6,K*4F
$WIMWD,23.0,T,22.0,M,4.0,N,2.1,M*5C
$WIMWV,310.4,R,0.0,N,A*25
$WIMWV,305.8,T,4.0,N,A*2F
$IIXDR,C,C,,C,AIRTEMP,A,12.7,D,HEEL,A,3.0,D,TRIM,P,,B,BARO,A,A,0.7,D,RUDDER*1B
$GPGGA,114955,5229.6025,N,00517.8148,E,1,12,0.50,3,M,47.0,M,,*6C
$SDHDG,76.2,,,0.9,E*0F
$GPGLL,5229.6025,N,00517.8148,E,114955,A,A*41
$GPGSA,A,3,05,07,08,10,16,18,20,21,26,27,29,74,0.90,0.50,0.70*04
$GPGSV,3,1,12,05,03,023,31,07,08,336,37,08,06,275,30,10,10,162,42*7E
$GPGSV,3,2,12,16,66,285,46,18,31,131,42,20,32,065,44,21,65,079,46*73
$GPGSV,3,3,12,26,68,195,46,27,40,278,44,29,12,089,36,74,11,187,47*71
$GPRMC,114955,A,5229.6025,N,00517.8149,E,4.1,86.1,150816,1.0,E,A*2C
$GPVTG,86.1,T,85.1,M,4.1,N,7.6,K,A*24
$GPZDA,114955,15,08,2016,-02,00*63
$GPAAM,,,,N,*38
$GPAPB,,,,,,,,,,,,,,,N*26
$GPBOD,,T,,M,,*47
$SDHDG,76.2,,,0.9,E*0F
$GPRMB,,,,,,,,,,,,,,N*04
$SDHDG,76.2,,,0.9,E*0F
!AIVDM,2,1,9,,59NSITh2D00LCD`7J20p5E@T<4j19Dp6222222160380P27aNO@CDm1DQ0CH88,0*6B
!AIVDM,2,2,9,,888888883,2*6F
$SDHDG,76.2,,,0.9,E*0F
!AIVDM,1,1,0,,13aGFK?P0s0Hp@8N3EB6tgwf0000,0*6C
$SDHDG,76.2,,,0.9,E*0F
$SDHDG,76.3,,,0.9,E*0E
$SDHDG,76.3,,,0.9,E*0E
$SDHDG,76.2,,,0.9,E*0F
$SDHDG,76.2,,,0.9,E*0F
$GPXTE,,,,,N,N*5E
$SDDBT,12.8,f,3.9,M,2.1,F*34
$SDDPT,3.9,0.4,*75
$SDMTW,39.2,C*0C
$SDHDG,76.2,,,0.9,E*0F
$SDVLW,,N,2794.0,N,1556.3,N,1503.2,N*4D
$SDVHW,77.2,T,76.2,M,4.6,N,8.6,K*4F
$WIMWD,22.8,T,21.8,M,4.0,N,2.1,M*5E
$WIMWV,308.1,R,0.0,N,A*29
$WIMWV,305.5,T,4.0,N,A*22
$IIXDR,C,C,,C,AIRTEMP,A,13.0,D,HEEL,A,2.8,D,TRIM,P,,B,BARO,A,A,0.7,D,RUDDER*14
$GPGGA,114956,5229.6026,N,00517.8170,E,1,12,0.50,3,M,47.0,M,,*67
$SDHDG,76.2,,,0.9,E*0F
$GPGLL,5229.6026,N,00517.8170,E,114956,A,A*4A
$GPGSA,A,3,05,07,08,10,16,18,20,21,26,27,29,74,0.90,0.50,0.70*04
$GPGSV,3,1,12,05,03,023,30,07,08,336,36,08,06,275,30,10,10,162,42*7E
$GPGSV,3,2,12,16,66,285,46,18,31,131,43,20,32,065,44,21,65,079,46*72
$GPGSV,3,3,12,26,68,195,47,27,40,278,44,29,12,089,36,74,11,187,47*70
$GPRMC,114956,A,5229.6026,N,00517.8170,E,4.1,85.5,150816,1.0,E,A*21
$GPVTG,85.5,T,84.5,M,4.1,N,7.6,K,A*26
$GPZDA,114956,15,08,2016,-02,00*60
$GPAAM,,,,N,*38
$GPAPB,,,,,,,,,,,,,,,N*26
$GPBOD,,T,,M,,*47
$SDHDG,76.3,,,0.9,E*0E
$GPRMB,,,,,,,,,,,,,,N*04
$SDHDG,76.3,,,0.9,E*0E
$SDHDG,76.3,,,0.9,E*0E
!AIVDM,1,1,1,,13bFNF0P00PHQFbN5maP0?wh2000,0*40
$SDHDG,76.3,,,0.9,E*0E
$SDHDG,76.3,,,0.9,E*0E
!AIVDM,1,1,2,,E02E34?76@1WPab3bPa200000000:us8?9TV@00000000?,4*32
$SDHDG,76.3,,,0.9,E*0E
$SDHDG,76.3,,,0.9,E*0E
$SDHDG,76.3,,,0.9,E*0E
$GPXTE,,,,,N,N*5E
$SDDBT,12.8,f,3.9,M,2.1,F*34
$SDDPT,3.9,0.4,*75
$SDMTW,39.1,C*0F
$SDVLW,,N,2794.0,N,1556.3,N,1503.2,N*4D
$SDVHW,77.2,T,76.2,M,4.6,N,8.6,K*4F
$SDHDG,76.2,,,0.9,E*0F
$WIMWD,22.8,T,21.8,M,4.0,N,2.1,M*5E
$WIMWV,299.6,R,0.0,N,A*27
$WIMWV,305.5,T,4.0,N,A*22
$IIXDR,C,C,,C,AIRTEMP,A,13.2,D,HEEL,A,2.6,D,TRIM,P,,B,BARO,A,A,0.3,D,RUDDER*1C
$GPGGA,114957,5229.6025,N,00517.8189,E,1,12,0.50,3,M,47.0,M,,*63
$GPGLL,5229.6025,N,00517.8189,E,114957,A,A*4E
$GPGSA,A,3,05,07,08,10,16,18,20,21,26,27,29,74,0.90,0.50,0.70*04
$GPGSV,3,1,12,05,03,023,30,07,08,336,36,08,06,275,30,10,10,162,42*7E
$GPGSV,3,2,12,16,66,285,46,18,31,131,43,20,32,065,44,21,65,079,46*72
$GPGSV,3,3,12,26,68,195,47,27,40,278,44,29,12,089,36,74,11,187,47*70
$SDHDG,76.1,,,0.9,E*0C
$GPRMC,114957,A,5229.6025,N,00517.8189,E,4.2,86.2,150816,1.0,E,A*22
$GPVTG,86.2,T,85.3,M,4.2,N,7.7,K,A*27
$GPZDA,114957,15,08,2016,-02,00*61
$GPAAM,,,,N,*38
$GPAPB,,,,,,,,,,,,,,,N*26
$GPBOD,,T,,M,,*47
$GPRMB,,,,,,,,,,,,,,N*04
$SDHDG,76.1,,,0.9,E*0C
$SDHDG,76.0,,,0.9,E*0D
$SDHDG,76.0,,,0.9,E*0D
$SDHDG,76.0,,,0.9,E*0D
$SDHDG,75.9,,,0.9,E*07
$SDHDG,75.9,,,0.9,E*07
!AIVDM,1,1,3,,13aL=:pP0vPGcg<N00V2Ngwj2000,0*29
$SDHDG,75.9,,,0.9,E*07
$GPXTE,,,,,N,N*5E
$SDDBT,12.8,f,3.9,M,2.1,F*34
$SDDPT,3.9,0.4,*75
$SDHDG,76.0,,,0.9,E*0D
$SDMTW,39.1,C*0F
$SDVLW,,N,2794.1,N,1556.3,N,1503.2,N*4C
$SDVHW,76.9,T,76.0,M,4.7,N,8.7,K*47
$SDHDG,76.0,,,0.9,E*0D
$WIMWD,22.6,T,21.7,M,4.0,N,2.1,M*5F
$WIMWV,306.8,R,0.0,N,A*2E
$WIMWV,305.7,T,4.0,N,A*20
$IIXDR,C,C,,C,AIRTEMP,A,13.4,D,HEEL,A,3.1,D,TRIM,P,,B,BARO,A,A,0.3,D,RUDDER*1C
$GPGGA,114958,5229.6027,N,00517.8206,E,1,12,0.50,3,M,47.0,M,,*6A
$GPGLL,5229.6027,N,00517.8206,E,114958,A,A*47
$GPGSA,A,3,05,07,08,10,16,18,20,21,26,27,29,74,0.90,0.50,0.70*04
$GPGSV,3,1,12,05,03,023,29,07,08,336,36,08,06,276,30,10,10,162,41*76
$GPGSV,3,2,12,16,66,285,46,18,31,131,44,20,32,065,45,21,65,079,46*74
$GPGSV,3,3,12,26,68,195,48,27,40,278,44,29,12,089,36,74,11,187,47*7F
$SDHDG,76.0,,,0.9,E*0D
$GPRMC,114958,A,5229.6027,N,00517.8206,E,4.2,85.6,150816,1.0,E,A*2C
$GPVTG,85.6,T,84.6,M,4.2,N,7.8,K,A*2B
$GPZDA,114958,15,08,2016,-02,00*6E
$GPAAM,,,,N,*38
$GPAPB,,,,,,,,,,,,,,,N*26
$GPBOD,,T,,M,,*47
$GPRMB,,,,,,,,,,,,,,N*04
$SDHDG,75.9,,,0.9,E*07
$SDHDG,75.9,,,0.9,E*07
$SDHDG,75.9,,,0.9,E*07
$SDHDG,75.8,,,0.9,E*06
$SDHDG,75.8,,,0.9,E*06
!AIVDM,1,1,4,,13aIk>g000PHm96N2oS>479l2000,0*2B
$SDHDG,75.8,,,0.9,E*06
$SDHDG,75.8,,,0.9,E*06
$GPXTE,,,,,N,N*5E
$SDDBT,12.8,f,3.9,M,2.1,F*34
$SDDPT,3.9,0.4,*75
$SDHDG,75.8,,,0.9,E*06
$SDMTW,39.1,C*0F
$SDVLW,,N,2794.1,N,1556.3,N,1503.2,N*4C
$SDVHW,76.8,T,75.8,M,4.7,N,8.7,K*4D
$WIMWD,22.6,T,21.7,M,4.0,N,2.1,M*5F
$WIMWV,303.5,R,0.0,N,A*26
$WIMWV,305.8,T,4.0,N,A*2F
$IIXDR,C,C,,C,AIRTEMP,A,13.5,D,HEEL,A,2.9,D,TRIM,P,,B,BARO,A,A,0.3,D,RUDDER*14
$SDHDG,75.8,,,0.9,E*06
$GPGGA,114959,5229.6028,N,00517.8225,E,1,12,0.50,3,M,47.0,M,,*65
$GPGLL,5229.6028,N,00517.8225,E,114959,A,A*48
$GPGSA,A,3,05,07,08,10,16,18,20,21,26,27,29,74,0.90,0.50,0.70*04
$GPGSV,3,1,12,05,03,023,29,07,08,336,36,08,06,276,30,10,10,162,41*76
$GPGSV,3,2,12,16,66,285,46,18,31,131,44,20,32,065,45,21,65,079,46*74
$GPGSV,3,3,12,26,68,195,48,27,40,278,44,29,12,089,36,74,11,187,47*7F
$GPRMC,114959,A,5229.6028,N,00517.8225,E,4.2,86.2,150816,1.0,E,A*24
$GPVTG,86.2,T,85.2,M,4.2,N,7.8,K,A*29
$GPZDA,114959,15,08,2016,-02,00*6F
$GPAAM,,,,N,*38
$GPAPB,,,,,,,,,,,,,,,N*26
$GPBOD,,T,,M,,*47
$SDHDG,75.8,,,0.9,E*06
$GPRMB,,,,,,,,,,,,,,N*04
$SDHDG,75.7,,,0.9,E*09
$SDHDG,75.7,,,0.9,E*09
$SDHDG,75.6,,,0.9,E*08
$SDHDG,75.5,,,0.9,E*0B
$SDHDG,75.4,,,0.9,E*0A
$SDHDG,75.3,,,0.9,E*0D
$SDHDG,75.3,,,0.9,E*0D
$GPXTE,,,,,N,N*5E
$SDDBT,12.8,f,3.9,M,2.1,F*34
$SDDPT,3.9,0.4,*75
$SDMTW,39.1,C*0F
$SDHDG,75.3,,,0.9,E*0D
$SDVLW,,N,2794.1,N,1556.3,N,1503.2,N*4C
$SDVHW,76.2,T,75.3,M,4.7,N,8.7,K*4C
$WIMWD,22.6,T,21.6,M,4.1,N,2.1,M*5F
$WIMWV,304.7,R,0.0,N,A*23
$WIMWV,306.3,T,4.1,N,A*26
$IIXDR,C,C,,C,AIRTEMP,A,13.0,D,HEEL,A,2.9,D,TRIM,P,,B,BARO,A,A,0.3,D,RUDDER*11
$GPGGA,115000,5229.6028,N,00517.8244,E,1,12,0.50,3,M,47.0,M,,*66
$SDHDG,75.3,,,0.9,E*0D
$GPGLL,5229.6028,N,00517.8244,E,115000,A,A*4B
$GPGSA,A,3,05,07,08,10,16,18,20,21,26,27,29,74,0.90,0.50,0.70*04
$GPGSV,3,1,12,05,03,023,27,07,08,336,37,08,06,276,30,10,10,162,40*78
$GPGSV,3,2,12,16,66,285,45,18,31,131,44,20,32,065,45,21,65,079,47*76
$GPGSV,3,3,12,26,68,195,47,27,40,278,43,29,12,089,36,74,11,187,47*77
$GPRMC,115000,A,5229.6028,N,00517.8244,E,4.3,87.0,150816,1.0,E,A*25
$GPVTG,87.2,T,86.3,M,4.3,N,8.0,K,A*2C
$GPZDA,115000,15,08,2016,-02,00*6B
$GPAAM,,,,N,*38
$GPAPB,,,,,,,,,,,,,,,N*26
$GPBOD,,T,,M,,*47
$SDHDG,75.3,,,0.9,E*0D
$GPRMB,,,,,,,,,,,,,,N*04
$SDHDG,75.3,,,0.9,E*0D
$SDHDG,75.3,,,0.9,E*0D
$SDHDG,75.3,,,0.9,E*0D
$SDHDG,75.2,,,0.9,E*0C
$SDHDG,75.2,,,0.9,E*0C
$SDHDG,75.1,,,0.9,E*0F
$SDHDG,75.0,,,0.9,E*0E
$GPXTE,,,,,N,N*5E
$SDDBT,12.8,f,3.9,M,2.1,F*34
$SDDPT,3.9,0.4,*75
$SDMTW,39.2,C*0C
$SDVLW,,N,2794.1,N,1556.3,N,1503.2,N*4C
$SDVHW,75.9,T,75.0,M,4.7,N,8.7,K*47
$SDHDG,75.0,,,0.9,E*0E
$WIMWD,22.5,T,21.6,M,4.1,N,2.1,M*5C
$WIMWV,302.8,R,0.0,N,A*2A
$WIMWV,306.5,T,4.1,N,A*20
$IIXDR,C,C,,C,AIRTEMP,A,13.3,D,HEEL,A,3.0,D,TRIM,P,,B,BARO,A,A,0.3,D,RUDDER*1A
$GPGGA,115001,5229.6028,N,00517.8262,E,1,12,0.50,3,M,47.0,M,,*63
$GPGLL,5229.6028,N,00517.8262,E,115001,A,A*4E
$GPGSA,A,3,05,07,08,10,16,18,20,21,26,27,29,74,0.90,0.50,0.70*04
$GPGSV,3,1,12,05,03,023,26,07,08,336,36,08,06,276,30,10,10,162,40*78
$GPGSV,3,2,12,16,66,285,45,18,31,131,43,20,32,065,45,21,65,079,47*71
$GPGSV,3,3,12,26,68,195,47,27,40,278,43,29,12,089,35,74,11,187,47*74
$SDHDG,74.9,,,0.9,E*06
$GPRMC,115001,A,5229.6028,N,00517.8262,E,4.3,86.0,150816,1.0,E,A*21
$GPVTG,86.2,T,85.2,M,4.3,N,7.9,K,A*29
$GPZDA,115001,15,08,2016,-02,00*6A
$GPAAM,,,,N,*38
$GPAPB,,,,,,,,,,,,,,,N*26
$GPBOD,,T,,M,,*47
$GPRMB,,,,,,,,,,,,,,N*04
$SDHDG,74.9,,,0.9,E*06
$SDHDG,74.8,,,0.9,E*07
$SDHDG,74.8,,,0.9,E*07
$SDHDG,74.8,,,0.9,E*07
$SDHDG,74.8,,,0.9,E*07
$SDHDG,74.8,,,0.9,E*07
$SDHDG,74.8,,,0.9,E*07
$SDHDG,74.7,,,0.9,E*08
$GPXTE,,,,,N,N*5E
$SDDBT,12.9,f,3.9,M,2.1,F*35
$SDDPT,3.9,0.4,*75
$SDMTW,39.2,C*0C
$SDVLW,,N,2794.1,N,1556.3,N,1503.2,N*4C
$SDVHW,75.6,T,74.7,M,4.6,N,8.5,K*4D
$SDHDG,74.6,,,0.9,E*09
$WIMWD,22.4,T,21.5,M,4.1,N,2.1,M*5E
$WIMWV,308.3,R,0.0,N,A*2B
$WIMWV,306.6,T,4.1,N,A*23
$IIXDR,C,C,,C,AIRTEMP,A,13.3,D,HEEL,A,3.0,D,TRIM,P,,B,BARO,A,A,0.3,D,RUDDER*1A
$GPGGA,115002,5229.6028,N,00517.8281,E,1,12,0.50,3,M,47.0,M,,*6D
$GPGLL,5229.6028,N,00517.8281,E,115002,A,A*40
$GPGSA,A,3,05,07,08,10,16,18,20,21,26,27,29,74,0.90,0.50,0.70*04
$GPGSV,3,1,12,05,03,023,26,07,08,336,36,08,06,276,30,10,10,162,40*78
$GPGSV,3,2,12,16,66,285,45,18,31,131,43,20,32,065,45,21,65,079,47*71
$GPGSV,3,3,12,26,68,195,47,27,40,278,43,29,12,089,35,74,11,187,47*74
$SDHDG,74.6,,,0.9,E*09
$GPRMC,115002,A,5229.6028,N,00517.8281,E,4.3,86.2,150816,1.0,E,A*2D
$GPVTG,85.9,T,85.0,M,4.3,N,7.9,K,A*23
$GPZDA,115002,15,08,2016,-02,00*69
$GPAAM,,,,N,*38
$GPAPB,,,,,,,,,,,,,,,N*26
$GPBOD,,T,,M,,*47
$GPRMB,,,,,,,,,,,,,,N*04
$SDHDG,74.5,,,0.9,E*0A
$SDHDG,74.5,,,0.9,E*0A
$SDHDG,74.4,,,0.9,E*0B
$SDHDG,74.4,,,0.9,E*0B
$SDHDG,74.4,,,0.9,E*0B
$SDHDG,74.4,,,0.9,E*0B
$SDHDG,74.4,,,0.9,E*0B
$SDHDG,74.3,,,0.9,E*0C
$GPXTE,,,,,N,N*5E
$SDDBT,12.8,f,3.9,M,2.1,F*34
$SDDPT,3.9,0.4,*75
$SDMTW,39.2,C*0C
$SDVLW,,N,2794.1,N,1556.3,N,1503.2,N*4C
$SDVHW,75.3,T,74.3,M,4.6,N,8.5,K*4C
$SDHDG,74.3,,,0.9,E*0C
$WIMWD,22.6,T,21.6,M,4.1,N,2.1,M*5F
$WIMWV,310.6,R,0.0,N,A*27
$WIMWV,307.2,T,4.1,N,A*26
$IIXDR,C,C,,C,AIRTEMP,A,13.2,D,HEEL,A,2.8,D,TRIM,P,,B,BARO,A,A,0.4,D,RUDDER*15
$GPGGA,115003,5229.6028,N,00517.8301,E,1,12,0.50,3,M,47.0,M,,*65
$GPGLL,5229.6028,N,00517.8301,E,115003,A,A*48
$GPGSA,A,3,05,07,08,10,16,18,20,21,26,27,29,74,0.90,0.50,0.70*04
$GPGSV,3,1,12,05,03,023,25,07,08,336,36,08,06,276,30,10,11,161,39*77
$GPGSV,3,2,12,16,66,285,45,18,31,131,43,20,32,065,44,21,65,079,47*70
$GPGSV,3,3,12,26,68,195,48,27,40,278,42,29,12,089,33,74,11,187,47*7C
$SDHDG,74.3,,,0.9,E*0C
$GPRMC,115003,A,5229.6028,N,00517.8301,E,4.3,86.8,150816,1.0,E,A*2F
$GPVTG,86.6,T,85.6,M,4.3,N,8.0,K,A*2F
$GPZDA,115003,15,08,2016,-02,00*68
$GPAAM,,,,N,*38
$GPAPB,,,,,,,,,,,,,,,N*26
$GPBOD,,T,,M,,*47
$GPRMB,,,,,,,,,,,,,,N*04
$SDHDG,74.3,,,0.9,E*0C
$SDHDG,74.2,,,0.9,E*0D
$SDHDG,74.2,,,0.9,E*0D
!AIVDM,1,1,5,,13`oU;PP17PH8jfN1VoRCwv62000,0*79
$SDHDG,74.1,,,0.9,E*0E
$SDHDG,74.0,,,0.9,E*0F
$SDHDG,74.0,,,0.9,E*0F
$SDHDG,73.9,,,0.9,E*01
$SDHDG,73.8,,,0.9,E*00
$GPXTE,,,,,N,N*5E
$SDDBT,12.8,f,3.9,M,2.1,F*34
$SDDPT,3.9,0.4,*75
$SDMTW,39.2,C*0C
$SDVLW,,N,2794.1,N,1556.3,N,1503.2,N*4C
$SDVHW,74.8,T,73.8,M,4.6,N,8.6,K*49
$SDHDG,73.8,,,0.9,E*00
$WIMWD,22.5,T,21.5,M,4.1,N,2.1,M*5F
$WIMWV,307.2,R,0.0,N,A*25
$WIMWV,307.6,T,4.1,N,A*22
$IIXDR,C,C,,C,AIRTEMP,A,13.4,D,HEEL,A,2.7,D,TRIM,P,,B,BARO,A,A,0.4,D,RUDDER*1C
$GPGGA,115004,5229.6027,N,00517.8322,E,1,12,0.50,3,M,47.0,M,,*6C
$GPGLL,5229.6027,N,00517.8322,E,115004,A,A*41
$GPGSA,A,3,05,07,08,10,16,18,20,21,26,27,29,74,0.90,0.50,0.70*04
$GPGSV,3,1,12,05,03,023,24,07,08,336,36,08,06,276,31,10,11,161,42*7B
$GPGSV,3,2,12,16,66,285,45,18,31,131,44,20,32,065,44,21,65,079,47*77
$GPGSV,3,3,12,26,68,195,47,27,40,278,42,29,12,089,30,74,11,187,46*71
$SDHDG,73.8,,,0.9,E*00
$GPRMC,115004,A,5229.6027,N,00517.8322,E,4.4,86.5,150816,1.0,E,A*2C
$GPVTG,86.3,T,85.4,M,4.4,N,8.1,K,A*2E
$GPZDA,115004,15,08,2016,-02,00*6F
$GPAAM,,,,N,*38
$GPAPB,,,,,,,,,,,,,,,N*26
$GPBOD,,T,,M,,*47
$GPRMB,,,,,,,,,,,,,,N*04
$SDHDG,73.8,,,0.9,E*00
$SDHDG,73.7,,,0.9,E*0F
$SDHDG,73.7,,,0.9,E*0F
$SDHDG,73.7,,,0.9,E*0F
$SDHDG,73.6,,,0.9,E*0E
$SDHDG,73.6,,,0.9,E*0E
$SDHDG,73.5,,,0.9,E*0D
!AIVDM,1,1,6,,13aEQv@P0oPHk48N2ht<dgv:2000,0*71
!AIVDM,1,1,7,,13aB:nhP0uPHe7fN2o;apwv:2000,0*74
$SDHDG,73.5,,,0.9,E*0D
$GPXTE,,,,,N,N*5E
$SDDBT,12.8,f,3.9,M,2.1,F*34
$SDDPT,3.9,0.4,*75
$SDMTW,39.1,C*0F
$SDVLW,,N,2794.1,N,1556.3,N,1503.2,N*4C
$SDVHW,74.4,T,73.4,M,4.6,N,8.6,K*49
$WIMWD,22.6,T,21.6,M,4.1,N,2.1,M*5F
$SDHDG,73.4,,,0.9,E*0C
$WIMWV,309.4,R,0.0,N,A*2D
$WIMWV,308.0,T,4.1,N,A*2B
$IIXDR,C,C,,C,AIRTEMP,A,13.2,D,HEEL,A,2.8,D,TRIM,P,,B,BARO,A,A,0.4,D,RUDDER*15
$GPGGA,115005,5229.6027,N,00517.8338,E,1,12,0.50,3,M,47.0,M,,*66
$GPGLL,5229.6027,N,00517.8338,E,115005,A,A*4B
$GPGSA,A,3,05,07,08,10,16,18,20,21,26,27,29,74,0.90,0.50,0.70*04
$GPGSV,3,1,12,05,03,023,24,07,08,336,36,08,06,276,31,10,11,161,42*7B
$GPGSV,3,2,12,16,66,285,45,18,31,131,44,20,32,065,44,21,65,079,47*77
$GPGSV,3,3,12,26,68,195,47,27,40,278,42,29,12,089,30,74,11,187,46*71
$GPRMC,115005,A,5229.6027,N,00517.8340,E,4.4,84.0,150816,1.0,E,A*2E
$SDHDG,73.3,,,0.9,E*0B
$GPVTG,84.2,T,83.2,M,4.4,N,8.1,K,A*2D
$GPZDA,115005,15,08,2016,-02,00*6E
$GPAAM,,,,N,*38
$GPAPB,,,,,,,,,,,,,,,N*26
$GPBOD,,T,,M,,*47
$GPRMB,,,,,,,,,,,,,,N*04
$SDHDG,73.2,,,0.9,E*0A
$SDHDG,73.2,,,0.9,E*0A
$SDHDG,73.1,,,0.9,E*09
$SDHDG,73.1,,,0.9,E*09
$SDHDG,73.1,,,0.9,E*09
$SDHDG,73.1,,,0.9,E*09
$SDHDG,73.0,,,0.9,E*08
$SDHDG,73.0,,,0.9,E*08
$GPXTE,,,,,N,N*5E
$SDDBT,12.8,f,3.9,M,2.1,F*34
$SDDPT,3.9,0.4,*75
$SDMTW,39.1,C*0F
$SDVLW,,N,2794.1,N,1556.3,N,1503.2,N*4C
$SDVHW,73.9,T,72.9,M,4.7,N,8.7,K*4F
$WIMWD,22.4,T,21.5,M,4.1,N,2.1,M*5E
$WIMWV,306.5,R,0.0,N,A*23
$WIMWV,308.4,T,4.1,N,A*2F
$SDHDG,72.9,,,0.9,E*00
$IIXDR,C,C,,C,AIRTEMP,A,13.4,D,HEEL,A,2.9,D,TRIM,P,,B,BARO,A,A,0.4,D,RUDDER*12
$GPGGA,115006,5229.6027,N,00517.8360,E,1,12,0.50,3,M,47.0,M,,*68
$GPGLL,5229.6027,N,00517.8360,E,115006,A,A*45
$GPGSA,A,3,05,07,08,10,16,18,20,21,26,27,29,74,0.90,0.50,0.70*04
$GPGSV,3,1,12,05,03,023,21,07,08,336,36,08,06,276,35,10,11,161,42*7A
$GPGSV,3,2,12,16,66,285,45,18,31,131,45,20,32,065,44,21,65,079,47*76
$GPGSV,3,3,12,26,68,195,47,27,40,278,42,29,12,089,27,74,11,187,46*77
$GPRMC,115006,A,5229.6027,N,00517.8360,E,4.4,84.5,150816,1.0,E,A*2A
$GPVTG,84.4,T,83.4,M,4.4,N,8.1,K,A*2D
$SDHDG,72.8,,,0.9,E*01
$GPZDA,115006,15,08,2016,-02,00*6D
$GPAAM,,,,N,*38
$GPAPB,,,,,,,,,,,,,,,N*26
$GPBOD,,T,,M,,*47
$GPRMB,,,,,,,,,,,,,,N*04
$SDHDG,72.8,,,0.9,E*01
$SDHDG,72.8,,,0.9,E*01
$SDHDG,72.7,,,0.9,E*0E
$SDHDG,72.7,,,0.9,E*0E
$SDHDG,72.7,,,0.9,E*0E
$SDHDG,72.6,,,0.9,E*0F
$SDHDG,72.6,,,0.9,E*0F
$SDHDG,72.6,,,0.9,E*0F
$GPXTE,,,,,N,N*5E
$SDDBT,12.9,f,3.9,M,2.1,F*35
$SDDPT,3.9,0.4,*75
$SDMTW,39.1,C*0F
$SDVLW,,N,2794.1,N,1556.3,N,1503.2,N*4C
$SDVHW,73.5,T,72.6,M,4.7,N,8.7,K*4C
!AIVDM,1,1,8,,13aC3<hP00PHl2rN2kT`gOv>2000,0*3D
$WIMWD,22.5,T,21.6,M,4.1,N,2.1,M*5C
$WIMWV,307.7,R,0.0,N,A*20
$WIMWV,308.9,T,4.1,N,A*22
$SDHDG,72.5,,,0.9,E*0C
$IIXDR,C,C,,C,AIRTEMP,A,13.0,D,HEEL,A,2.9,D,TRIM,P,,B,BARO,A,A,0.7,D,RUDDER*15
$GPGGA,115007,5229.6030,N,00517.8379,E,1,12,0.50,3,M,47.0,M,,*67
$GPGLL,5229.6030,N,00517.8379,E,115007,A,A*4A
$GPGSA,A,3,05,07,08,10,16,18,20,21,26,27,29,74,0.90,0.50,0.70*04
$GPGSV,3,1,12,05,03,023,21,07,08,336,36,08,06,276,35,10,11,161,42*7A
$GPGSV,3,2,12,16,66,285,45,18,31,131,45,20,32,065,44,21,65,079,47*76
$GPGSV,3,3,12,26,68,195,47,27,40,278,42,29,12,089,27,74,11,187,46*77
$GPRMC,115007,A,5229.6030,N,00517.8379,E,4.4,83.5,150816,1.0,E,A*22
$GPVTG,83.5,T,82.6,M,4.4,N,8.1,K,A*28
$SDHDG,72.5,,,0.9,E*0C
$GPZDA,115007,15,08,2016,-02,00*6C
$GPAAM,,,,N,*38
$GPAPB,,,,,,,,,,,,,,,N*26
$GPBOD,,T,,M,,*47
$GPRMB,,,,,,,,,,,,,,N*04
$SDHDG,72.4,,,0.9,E*0D
$SDHDG,72.3,,,0.9,E*0A
$SDHDG,72.2,,,0.9,E*0B
$SDHDG,72.1,,,0.9,E*08
$SDHDG,72.0,,,0.9,E*09
$SDHDG,71.9,,,0.9,E*03
$SDHDG,71.8,,,0.9,E*02
$SDHDG,71.7,,,0.9,E*0D
$GPXTE,,,,,N,N*5E
$SDDBT,12.8,f,3.9,M,2.1,F*34
$SDDPT,3.9,0.4,*75
$SDMTW,39.1,C*0F
$SDVLW,,N,2794.1,N,1556.3,N,1503.2,N*4C
$SDVHW,72.6,T,71.7,M,4.7,N,8.7,K*4C
$WIMWD,22.5,T,21.5,M,4.1,N,2.1,M*5F
$WIMWV,309.3,R,0.0,N,A*2A
$WIMWV,309.7,T,4.1,N,A*2D
$SDHDG,71.6,,,0.9,E*0C
$IIXDR,C,C,,C,AIRTEMP,A,12.9,D,HEEL,A,2.8,D,TRIM,P,,B,BARO,A,A,0.8,D,RUDDER*13
$GPGGA,115008,5229.6031,N,00517.8398,E,1,12,0.50,2,M,47.0,M,,*67
$GPGLL,5229.6031,N,00517.8398,E,115008,A,A*4B
$GPGSA,A,3,05,07,08,10,16,18,20,21,26,27,29,74,0.90,0.50,0.70*04
$GPGSV,3,1,12,05,03,023,21,07,08,336,36,08,06,276,36,10,11,161,43*78
$GPGSV,3,2,12,16,66,285,46,18,31,131,44,20,32,065,43,21,65,079,47*73
$GPGSV,3,3,12,26,68,195,48,27,40,278,42,29,12,089,29,74,11,187,45*75
$GPRMC,115008,A,5229.6031,N,00517.8398,E,4.4,85.0,150816,1.0,E,A*20
$GPVTG,84.8,T,83.9,M,4.4,N,8.1,K,A*2C
$SDHDG,71.6,,,0.9,E*0C
$GPZDA,115008,15,08,2016,-02,00*63
$GPAAM,,,,N,*38
$GPAPB,,,,,,,,,,,,,,,N*26
$GPBOD,,T,,M,,*47
$GPRMB,,,,,,,,,,,,,,N*04
!AIVDM,1,1,9,,B3aC4LP0=064gS7PWkPkkwP00000,0*32
$SDHDG,71.6,,,0.9,E*0C
$SDHDG,71.6,,,0.9,E*0C
$SDHDG,71.6,,,0.9,E*0C
$SDHDG,71.6,,,0.9,E*0C
$SDHDG,71.6,,,0.9,E*0C
$SDHDG,71.6,,,0.9,E*0C
$SDHDG,71.5,,,0.9,E*0F
$SDHDG,71.5,,,0.9,E*0F
$GPXTE,,,,,N,N*5E
$SDDBT,12.8,f,3.9,M,2.1,F*34
$SDDPT,3.9,0.4,*75
$SDMTW,39.1,C*0F
$SDVLW,,N,2794.1,N,1556.3,N,1503.2,N*4C
$SDVHW,72.4,T,71.5,M,4.7,N,8.7,K*4C
$WIMWD,22.4,T,21.5,M,4.1,N,2.1,M*5E
$WIMWV,314.0,R,0.0,N,A*25
$WIMWV,309.8,T,4.1,N,A*22
$SDHDG,71.4,,,0.9,E*0E
$IIXDR,C,C,,C,AIRTEMP,A,13.2,D,HEEL,A,2.7,D,TRIM,P,,B,BARO,A,A,1.3,D,RUDDER*1C
$GPGGA,115009,5229.6032,N,00517.8418,E,1,12,0.50,2,M,47.0,M,,*6A
$GPGLL,5229.6032,N,00517.8418,E,115009,A,A*46
$GPGSA,A,3,05,07,08,10,16,18,20,21,26,27,29,74,0.90,0.50,0.70*04
$GPGSV,3,1,12,05,03,023,20,07,08,336,36,08,06,276,36,10,11,161,44*7E
$GPGSV,3,2,12,16,66,285,46,18,31,131,45,20,32,065,43,21,65,079,46*73
$GPGSV,3,3,12,26,68,195,48,27,40,278,43,29,12,089,32,74,10,187,45*7F
$GPRMC,115009,A,5229.6032,N,00517.8418,E,4.3,81.6,150816,1.0,E,A*28
$GPVTG,81.6,T,80.6,M,4.3,N,8.0,K,A*2D
$GPZDA,115009,15,08,2016,-02,00*62
$SDHDG,71.4,,,0.9,E*0E
$GPAAM,,,,N,*38
$GPAPB,,,,,,,,,,,,,,,N*26
$GPBOD,,T,,M,,*47
$GPRMB,,,,,,,,,,,,,,N*04
$SDHDG,71.4,,,0.9,E*0E
$SDHDG,71.4,,,0.9,E*0E
$SDHDG,71.4,,,0.9,E*0E
$SDHDG,71.5,,,0.9,E*0F
$SDHDG,71.5,,,0.9,E*0F
$SDHDG,71.5,,,0.9,E*0F
$SDHDG,71.5,,,0.9,E*0F
$SDHDG,71.5,,,0.9,E*0F
$GPXTE,,,,,N,N*5E
$SDDBT,12.8,f,3.9,M,2.1,F*34
$SDDPT,3.9,0.4,*75
$SDMTW,39.2,C*0C
$SDVLW,,N,2794.1,N,1556.3,N,1503.2,N*4C
$SDVHW,72.4,T,71.4,M,4.6,N,8.5,K*4E
!AIVDM,1,1,0,,B3a4MBh05H5nr;7P2V29KwP00000,0*1F
$WIMWD,23.1,T,22.1,M,4.1,N,2.1,M*5D
$WIMWV,316.1,R,0.0,N,A*26
$WIMWV,310.6,T,4.1,N,A*24
$SDHDG,71.4,,,0.9,E*0E
$IIXDR,C,C,,C,AIRTEMP,A,13.2,D,HEEL,A,2.7,D,TRIM,P,,B,BARO,A,A,1.9,D,RUDDER*16
$GPGGA,115010,5229.6033,N,00517.8440,E,1,12,0.50,2,M,47.0,M,,*6E
$GPGLL,5229.6033,N,00517.8440,E,115010,A,A*42
$GPGSA,A,3,05,07,08,10,16,18,20,21,26,27,29,74,0.90,0.50,0.70*04
$GPGSV,3,1,12,05,03,023,20,07,08,336,36,08,06,276,36,10,11,161,44*7E
$GPGSV,3,2,12,16,66,285,46,18,31,131,45,20,32,065,43,21,65,079,46*73
$GPGSV,3,3,12,26,68,195,48,27,40,278,43,29,12,089,32,74,10,187,45*7F
$GPRMC,115010,A,5229.6033,N,00517.8440,E,4.3,81.7,150816,1.0,E,A*2D
$GPVTG,81.7,T,80.7,M,4.3,N,8.0,K,A*2D
$GPZDA,115010,15,08,2016,-02,00*6A
$GPAAM,,,,N,*38
$GPAPB,,,,,,,,,,,,,,,N*26
$SDHDG,71.4,,,0.9,E*0E
$GPBOD,,T,,M,,*47
$GPRMB,,,,,,,,,,,,,,N*04
$SDHDG,71.4,,,0.9,E*0E
$SDHDG,71.3,,,0.9,E*09
$SDHDG,71.3,,,0.9,E*09
$SDHDG,71.3,,,0.9,E*09
$SDHDG,71.4,,,0.9,E*0E
$SDHDG,71.4,,,0.9,E*0E
$SDHDG,71.5,,,0.9,E*0F
$SDHDG,71.5,,,0.9,E*0F
$GPXTE,,,,,N,N*5E
$SDDBT,12.8,f,3.9,M,2.1,F*34
$SDDPT,3.9,0.4,*75
$SDMTW,39.1,C*0F
$SDVLW,,N,2794.1,N,1556.3,N,1503.2,N*4C
$SDVHW,72.5,T,71.6,M,4.7,N,8.7,K*4E
$WIMWD,23.6,T,22.7,M,4.1,N,2.1,M*5C
$WIMWV,312.4,R,0.0,N,A*27
$WIMWV,311.1,T,4.1,N,A*22
$SDHDG,71.6,,,0.9,E*0C
$IIXDR,C,C,,C,AIRTEMP,A,13.4,D,HEEL,A,3.0,D,TRIM,P,,B,BARO,A,A,2.5,D,RUDDER*19
$GPGGA,115011,5229.6036,N,00517.8459,E,1,12,0.50,2,M,47.0,M,,*62
$GPGLL,5229.6036,N,00517.8459,E,115011,A,A*4E
$GPGSA,A,3,05,07,08,10,16,18,20,21,26,27,29,74,0.90,0.50,0.70*04
$GPGSV,3,1,12,05,03,023,20,07,08,336,35,08,06,276,36,10,11,161,43*7A
$GPGSV,3,2,12,16,66,285,46,18,31,131,46,20,32,065,43,21,65,079,46*70
$GPGSV,3,3,12,26,68,195,48,27,40,278,44,29,12,089,32,74,10,187,46*7B
$GPRMC,115011,A,5229.6036,N,00517.8459,E,4.3,81.0,150816,1.0,E,A*26
$GPVTG,80.6,T,79.7,M,4.3,N,8.0,K,A*2B
$GPZDA,115011,15,08,2016,-02,00*6B
$GPAAM,,,,N,*38
$GPAPB,,,,,,,,,,,,,,,N*26
$SDHDG,71.7,,,0.9,E*0D
$GPBOD,,T,,M,,*47
$GPRMB,,,,,,,,,,,,,,N*04
$SDHDG,71.7,,,0.9,E*0D
$SDHDG,71.8,,,0.9,E*02
!AIVDM,1,1,1,,13`ekT0P00PGpqbMwcd>4?vF2000,0*40
$SDHDG,71.9,,,0.9,E*03
$SDHDG,71.9,,,0.9,E*03
$SDHDG,71.9,,,0.9,E*03
!AIVDM,1,1,2,,33aFdc?P0QPGfE8N3:Qb>wvH2000,0*76
$SDHDG,71.9,,,0.9,E*03
$SDHDG,72.0,,,0.9,E*09
$SDHDG,72.1,,,0.9,E*08
$GPXTE,,,,,N,N*5E
!AIVDM,1,1,3,,B3aQ5100=85u:CWPHS`u7wP00000,0*04
$SDDBT,12.8,f,3.9,M,2.1,F*34
$SDDPT,3.9,0.4,*75
$SDMTW,39.1,C*0F
$SDVLW,,N,2794.1,N,1556.3,N,1503.2,N*4C
$SDVHW,73.1,T,72.1,M,4.7,N,8.7,K*4F
$WIMWD,23.6,T,22.7,M,4.1,N,2.1,M*5C
$WIMWV,307.0,R,0.0,N,A*27
$WIMWV,310.7,T,4.1,N,A*25
$IIXDR,C,C,,C,AIRTEMP,A,12.9,D,HEEL,A,2.8,D,TRIM,P,,B,BARO,A,A,2.9,D,RUDDER*10
$SDHDG,72.3,,,0.9,E*0A
$GPGGA,115012,5229.6038,N,00517.8476,E,1,12,0.50,2,M,47.0,M,,*62
$GPGLL,5229.6038,N,00517.8476,E,115012,A,A*4E
$GPGSA,A,3,05,07,08,10,16,18,20,21,26,27,29,74,0.90,0.50,0.70*04
$GPGSV,3,1,12,05,03,023,21,07,08,336,35,08,06,276,36,10,11,161,43*7B
$GPGSV,3,2,12,16,66,285,47,18,31,131,46,20,32,065,42,21,65,079,46*70
$GPGSV,3,3,12,26,68,195,48,27,40,278,44,29,12,089,30,74,10,187,46*79
$GPRMC,115012,A,5229.6038,N,00517.8476,E,4.3,80.9,150816,1.0,E,A*2E
$GPVTG,80.9,T,80.0,M,4.3,N,8.0,K,A*25
$GPZDA,115012,15,08,2016,-02,00*68
$GPAAM,,,,N,*38
$GPAPB,,,,,,,,,,,,,,,N*26
$GPBOD,,T,,M,,*47
$SDHDG,72.4,,,0.9,E*0D
$GPRMB,,,,,,,,,,,,,,N*04
$SDHDG,72.6,,,0.9,E*0F
$SDHDG,72.7,,,0.9,E*0E
$SDHDG,72.8,,,0.9,E*01
$SDHDG,72.9,,,0.9,E*00
$SDHDG,72.9,,,0.9,E*00
$SDHDG,73.0,,,0.9,E*08
$SDHDG,73.0,,,0.9,E*08
$GPXTE,,,,,N,N*5E
$SDDBT,12.8,f,3.9,M,2.1,F*34
$SDDPT,3.9,0.4,*75
$SDMTW,39.1,C*0F
$SDHDG,73.1,,,0.9,E*09
$SDVLW,,N,2794.1,N,1556.3,N,1503.2,N*4C
$SDVHW,74.1,T,73.1,M,4.7,N,8.7,K*49
$WIMWD,23.2,T,22.3,M,4.1,N,2.1,M*5C
$WIMWV,306.7,R,0.0,N,A*21
$WIMWV,309.3,T,4.1,N,A*29
$IIXDR,C,C,,C,AIRTEMP,A,12.8,D,HEEL,A,3.4,D,TRIM,P,,B,BARO,A,A,2.0,D,RUDDER*15
$SDHDG,73.2,,,0.9,E*0A
$GPGGA,115013,5229.6038,N,00517.8494,E,1,12,0.50,2,M,47.0,M,,*6F
$GPGLL,5229.6038,N,00517.8494,E,115013,A,A*43
$GPGSA,A,3,05,07,08,10,16,18,20,21,26,27,29,74,0.90,0.50,0.70*04
$GPGSV,3,1,12,05,03,023,21,07,08,336,35,08,06,276,36,10,11,161,43*7B
$GPGSV,3,2,12,16,66,285,47,18,31,131,46,20,32,065,42,21,65,079,46*70
$GPGSV,3,3,12,26,68,195,48,27,40,278,44,29,12,089,30,74,10,187,46*79
$GPRMC,115013,A,5229.6038,N,00517.8494,E,4.3,79.4,150816,1.0,E,A*28
$GPVTG,79.5,T,78.5,M,4.3,N,8.0,K,A*2D
$GPZDA,115013,15,08,2016,-02,00*69
$GPAAM,,,,N,*38
$GPAPB,,,,,,,,,,,,,,,N*26
$GPBOD,,T,,M,,*47
$SDHDG,73.4,,,0.9,E*0C
$GPRMB,,,,,,,,,,,,,,N*04
$SDHDG,73.5,,,0.9,E*0D
$SDHDG,73.6,,,0.9,E*0E
$SDHDG,73.7,,,0.9,E*0F
$SDHDG,73.8,,,0.9,E*00
!AIVDM,1,1,4,,13aB:nhP0uPHe0pN2o29q?vJ2000,0*0E
$SDHDG,73.8,,,0.9,E*00
!AIVDM,1,1,5,,13`oU;PP16PH8sVN1WA2DwvJ2000,0*65
$SDHDG,73.9,,,0.9,E*01
$SDHDG,73.9,,,0.9,E*01
$GPXTE,,,,,N,N*5E
$SDDBT,12.8,f,3.9,M,2.1,F*34
$SDDPT,3.9,0.4,*75
$SDMTW,39.1,C*0F
$SDVLW,,N,2794.1,N,1556.3,N,1503.2,N*4C
$SDHDG,74.0,,,0.9,E*0F
$SDVHW,74.9,T,74.0,M,4.7,N,8.7,K*47
$WIMWD,23.1,T,22.1,M,4.1,N,2.1,M*5D
$WIMWV,307.6,R,0.0,N,A*21
$WIMWV,308.1,T,4.1,N,A*2A
$IIXDR,C,C,,C,AIRTEMP,A,12.5,D,HEEL,A,3.0,D,TRIM,P,,B,BARO,A,A,1.3,D,RUDDER*1C
$SDHDG,74.0,,,0.9,E*0F
$GPGGA,115014,5229.6040,N,00517.8512,E,1,12,0.50,2,M,47.0,M,,*68
$GPGLL,5229.6040,N,00517.8512,E,115014,A,A*44
$GPGSA,A,3,05,07,08,10,16,18,20,21,26,27,29,74,0.90,0.50,0.70*04
$GPGSV,3,1,12,05,03,023,20,07,08,336,35,08,06,276,36,10,11,161,43*7A
$GPGSV,3,2,12,16,66,284,47,18,31,131,46,20,32,065,41,21,65,079,47*73
$GPGSV,3,3,12,26,68,195,47,27,40,278,44,29,12,089,28,74,10,187,46*7F
$GPRMC,115014,A,5229.6040,N,00517.8512,E,4.3,80.8,150816,1.0,E,A*25
$GPVTG,81.1,T,80.1,M,4.3,N,8.0,K,A*2D
$GPZDA,115014,15,08,2016,-02,00*6E
$GPAAM,,,,N,*38
$GPAPB,,,,,,,,,,,,,,,N*26
$GPBOD,,T,,M,,*47
$SDHDG,74.1,,,0.9,E*0E
$GPRMB,,,,,,,,,,,,,,N*04
$SDHDG,74.2,,,0.9,E*0D
$SDHDG,74.3,,,0.9,E*0C
$SDHDG,74.3,,,0.9,E*0C
$SDHDG,74.4,,,0.9,E*0B
$SDHDG,74.4,,,0.9,E*0B
$SDHDG,74.5,,,0.9,E*0A
$SDHDG,74.6,,,0.9,E*09
$GPXTE,,,,,N,N*5E
$SDDBT,12.8,f,3.9,M,2.1,F*34
$SDDPT,3.9,0.4,*75
$SDMTW,39.1,C*0F
$SDVLW,,N,2794.1,N,1556.3,N,1503.2,N*4C
$SDHDG,74.7,,,0.9,E*08
$SDVHW,75.7,T,74.7,M,4.6,N,8.5,K*4C
$WIMWD,23.2,T,22.2,M,4.1,N,2.1,M*5D
$WIMWV,311.4,R,0.0,N,A*24
$WIMWV,307.6,T,4.1,N,A*22
$IIXDR,C,C,,C,AIRTEMP,A,12.8,D,HEEL,A,3.2,D,TRIM,P,,B,BARO,A,A,1.2,D,RUDDER*12
$SDHDG,74.8,,,0.9,E*07
$GPGGA,115015,5229.6042,N,00517.8532,E,1,12,0.50,2,M,47.0,M,,*69
$GPGLL,5229.6042,N,00517.8532,E,115015,A,A*45
$GPGSA,A,3,05,07,08,10,16,18,20,21,26,27,29,74,0.90,0.50,0.70*04
$GPGSV,3,1,12,05,03,023,20,07,08,336,35,08,06,276,36,10,11,161,43*7A
$GPGSV,3,2,12,16,66,284,47,18,31,131,46,20,32,065,41,21,65,079,47*73
$GPGSV,3,3,12,26,68,195,47,27,40,278,44,29,12,089,28,74,10,187,46*7F
$GPRMC,115015,A,5229.6042,N,00517.8532,E,4.3,83.0,150816,1.0,E,A*2F
$GPVTG,82.8,T,81.8,M,4.3,N,8.0,K,A*2F
$GPZDA,115015,15,08,2016,-02,00*6F
$GPAAM,,,,N,*38
$GPAPB,,,,,,,,,,,,,,,N*26
$GPBOD,,T,,M,,*47
$SDHDG,74.9,,,0.9,E*06
$GPRMB,,,,,,,,,,,,,,N*04
!AIVDM,1,1,6,,13aFeNPP13PGwBtN1;?1nOvP2000,0*44
$SDHDG,75.0,,,0.9,E*0E
$SDHDG,75.0,,,0.9,E*0E
$SDHDG,75.0,,,0.9,E*0E
$SDHDG,75.0,,,0.9,E*0E
$SDHDG,75.1,,,0.9,E*0F
$SDHDG,75.1,,,0.9,E*0F
$SDHDG,75.2,,,0.9,E*0C
!AIVDM,1,1,7,,B3aOARP0=`65Q1WP`1PiGwP00000,0*7D
$GPXTE,,,,,N,N*5E
$SDDBT,12.8,f,3.9,M,2.1,F*34
$SDDPT,3.9,0.4,*75
$SDMTW,39.1,C*0F
$SDVLW,,N,2794.1,N,1556.3,N,1503.2,N*4C
$SDHDG,75.4,,,0.9,E*0A
$SDVHW,76.3,T,75.4,M,4.5,N,8.4,K*4B
$WIMWD,23.1,T,22.2,M,4.1,N,2.1,M*5E
$WIMWV,304.5,R,0.0,N,A*21
$WIMWV,307.0,T,4.1,N,A*24
$IIXDR,C,C,,C,AIRTEMP,A,12.3,D,HEEL,A,2.9,D,TRIM,P,,B,BARO,A,A,1.1,D,RUDDER*10
$SDHDG,75.5,,,0.9,E*0B
$GPGGA,115016,5229.6044,N,00517.8552,E,1,12,0.50,2,M,47.0,M,,*6A
$GPGLL,5229.6044,N,00517.8552,E,115016,A,A*46
$GPGSA,A,3,05,07,08,10,16,18,20,21,26,27,29,74,0.90,0.50,0.70*04
$GPGSV,3,1,12,05,03,023,20,07,08,336,35,08,06,276,35,10,11,161,44*7E
$GPGSV,3,2,12,16,66,284,46,18,31,131,45,20,32,065,42,21,65,079,47*72
$GPGSV,3,3,12,26,68,195,47,27,40,278,44,29,12,089,27,74,10,187,46*70
$GPRMC,115016,A,5229.6044,N,00517.8554,E,4.3,84.1,150816,1.0,E,A*2C
$GPVTG,84.1,T,83.2,M,4.3,N,8.0,K,A*28
$GPZDA,115016,15,08,2016,-02,00*6C
$GPAAM,,,,N,*38
$GPAPB,,,,,,,,,,,,,,,N*26
$GPBOD,,T,,M,,*47
$SDHDG,75.6,,,0.9,E*08
$GPRMB,,,,,,,,,,,,,,N*04
$SDHDG,75.7,,,0.9,E*09
$SDHDG,75.8,,,0.9,E*06
$SDHDG,75.8,,,0.9,E*06
!AIVDM,1,1,8,,13bFNF0P00PHQFbN5mbP0?vP2000,0*73
$SDHDG,75.9,,,0.9,E*07
$SDHDG,76.0,,,0.9,E*0D
!AIVDM,1,1,9,,13aC3<hP00PHl3JN2kU8gOvR2000,0*30
$SDHDG,76.1,,,0.9,E*0C
$SDHDG,76.1,,,0.9,E*0C
$GPXTE,,,,,N,N*5E
$SDDBT,12.8,f,3.9,M,2.1,F*34
$SDDPT,3.9,0.4,*75
$SDMTW,39.1,C*0F
$SDVLW,,N,2794.1,N,1556.3,N,1503.2,N*4C
$SDVHW,77.2,T,76.2,M,4.5,N,8.4,K*4E
$SDHDG,76.2,,,0.9,E*0F
$WIMWD,23.1,T,22.1,M,4.1,N,2.1,M*5D
$WIMWV,304.7,R,0.0,N,A*23
$WIMWV,306.0,T,4.1,N,A*25
$IIXDR,C,C,,C,AIRTEMP,A,12.8,D,HEEL,A,3.1,D,TRIM,P,,B,BARO,A,A,1.0,D,RUDDER*13
$SDHDG,76.3,,,0.9,E*0E
$GPGGA,115017,5229.6047,N,00517.8574,E,1,12,0.50,2,M,47.0,M,,*6C
$GPGLL,5229.6047,N,00517.8574,E,115017,A,A*40
$GPGSA,A,3,05,07,08,10,16,18,20,21,26,27,29,74,0.90,0.50,0.70*04
$GPGSV,3,1,12,05,03,023,24,07,08,336,36,08,06,276,29,10,11,161,43*73
$GPGSV,3,2,12,16,66,284,46,18,31,131,45,20,32,065,43,21,65,079,47*73
$GPGSV,3,3,12,26,68,195,48,27,40,278,44,29,12,089,33,74,10,187,46*7A
$GPRMC,115017,A,5229.6048,N,00517.8576,E,4.3,83.7,150816,1.0,E,A*20
$GPVTG,83.7,T,82.7,M,4.3,N,8.0,K,A*2D
$GPZDA,115017,15,08,2016,-02,00*6D
$GPAAM,,,,N,*38
$GPAPB,,,,,,,,,,,,,,,N*26
$GPBOD,,T,,M,,*47
$SDHDG,76.3,,,0.9,E*0E
$GPRMB,,,,,,,,,,,,,,N*04
$SDHDG,76.4,,,0.9,E*09
$SDHDG,76.4,,,0.9,E*09
$SDHDG,76.4,,,0.9,E*09
!AIVDM,1,1,0,,B3aIi000:85sfaWPS0s2SwP00000,0*75
$SDHDG,76.4,,,0.9,E*09
$SDHDG,76.5,,,0.9,E*08
$SDHDG,76.5,,,0.9,E*08
!AIVDM,1,1,1,,13aFe6hP1b0Ht1hN4Ec8;OvT0000,0*2C
!AIVDM,1,1,2,,13aIk>g000PHm8vN2oPf478T2000,0*0E
$SDHDG,76.6,,,0.9,E*0B
$GPXTE,,,,,N,N*5E
$SDDBT,12.8,f,3.9,M,2.1,F*34
$SDDPT,3.9,0.4,*75
$SDMTW,39.1,C*0F
$SDVLW,,N,2794.1,N,1556.3,N,1503.2,N*4C
$SDVHW,77.6,T,76.6,M,4.6,N,8.6,K*4F
$SDHDG,76.6,,,0.9,E*0B
$WIMWD,23.2,T,22.2,M,4.1,N,2.1,M*5D
$WIMWV,304.5,R,0.0,N,A*21
$WIMWV,305.7,T,4.1,N,A*21
$IIXDR,C,C,,C,AIRTEMP,A,13.0,D,HEEL,A,2.7,D,TRIM,P,,B,BARO,A,A,0.9,D,RUDDER*15
$SDHDG,76.7,,,0.9,E*0A
$GPGGA,115018,5229.6051,N,00517.8596,E,1,12,0.50,2,M,47.0,M,,*68
$GPGLL,5229.6051,N,00517.8596,E,115018,A,A*44
$GPGSA,A,3,05,07,08,10,16,18,20,21,26,27,29,74,0.90,0.50,0.70*04
$GPGSV,3,1,12,05,03,023,24,07,08,336,36,08,06,276,29,10,11,161,43*73
$GPGSV,3,2,12,16,66,284,46,18,31,131,45,20,32,065,43,21,65,079,47*73
$GPGSV,3,3,12,26,68,195,48,27,40,278,44,29,12,089,33,74,10,187,46*7A
$GPRMC,115018,A,5229.6051,N,00517.8598,E,4.4,86.1,150816,1.0,E,A*23
$GPVTG,86.1,T,85.1,M,4.4,N,8.1,K,A*29
$GPZDA,115018,15,08,2016,-02,00*62
$GPAAM,,,,N,*38
$GPAPB,,,,,,,,,,,,,,,N*26
$GPBOD,,T,,M,,*47
$SDHDG,76.8,,,0.9,E*05
$GPRMB,,,,,,,,,,,,,,N*04
$SDHDG,76.9,,,0.9,E*04
$SDHDG,76.9,,,0.9,E*04
$SDHDG,77.0,,,0.9,E*0C
$SDHDG,77.0,,,0.9,E*0C
$SDHDG,77.1,,,0.9,E*0D
$SDHDG,77.1,,,0.9,E*0D
!AIVDM,1,1,3,,B3`j4bP08h5paeWPTJ3B?wP00000,0*48
$SDHDG,77.1,,,0.9,E*0D
$GPXTE,,,,,N,N*5E
$SDDBT,12.8,f,3.9,M,2.1,F*34
$SDDPT,3.9,0.4,*75
$SDMTW,39.1,C*0F
$SDVLW,,N,2794.1,N,1556.3,N,1503.2,N*4C
$SDVHW,78.0,T,77.1,M,4.7,N,8.8,K*4F
$SDHDG,77.1,,,0.9,E*0D
$WIMWD,23.3,T,22.4,M,4.1,N,2.1,M*5A
$WIMWV,302.5,R,0.0,N,A*27
$WIMWV,305.3,T,4.1,N,A*25
$IIXDR,C,C,,C,AIRTEMP,A,14.1,D,HEEL,A,3.1,D,TRIM,P,,B,BARO,A,A,0.9,D,RUDDER*14
$SDHDG,77.0,,,0.9,E*0C
$GPGGA,115019,5229.6052,N,00517.8618,E,1,12,0.50,3,M,47.0,M,,*6E
$GPGLL,5229.6052,N,00517.8618,E,115019,A,A*43
$GPGSA,A,3,05,07,08,10,16,18,20,21,26,27,29,74,0.90,0.50,0.70*04
$GPGSV,3,1,12,05,03,023,26,07,08,336,36,08,06,276,29,10,11,161,42*70
$GPGSV,3,2,12,16,66,284,45,18,32,130,45,20,32,065,44,21,65,079,47*75
$GPGSV,3,3,12,26,68,195,48,27,40,278,43,29,12,089,37,74,10,187,47*78
$GPRMC,115019,A,5229.6052,N,00517.8618,E,4.5,87.3,150816,1.0,E,A*28
$GPVTG,87.3,T,86.3,M,4.5,N,8.2,K,A*29
$GPZDA,115019,15,08,2016,-02,00*63
$GPAAM,,,,N,*38
$GPAPB,,,,,,,,,,,,,,,N*26
$GPBOD,,T,,M,,*47
$SDHDG,77.0,,,0.9,E*0C
$GPRMB,,,,,,,,,,,,,,N*04
!AIVDM,1,1,4,,B3`e>?@0;P65>S7PF>`SKwP00000,0*23
$SDHDG,77.0,,,0.9,E*0C
$SDHDG,77.0,,,0.9,E*0C
$SDHDG,76.9,,,0.9,E*04
$SDHDG,76.9,,,0.9,E*04
$SDHDG,76.8,,,0.9,E*05
$SDHDG,76.8,,,0.9,E*05
$SDHDG,76.8,,,0.9,E*05
$GPXTE,,,,,N,N*5E
$SDDBT,12.8,f,3.9,M,2.1,F*34
$SDDPT,3.9,0.4,*75
$SDMTW,39.1,C*0F
$SDVLW,,N,2794.1,N,1556.3,N,1503.2,N*4C
$SDVHW,77.8,T,76.8,M,4.9,N,9.1,K*46
$SDHDG,76.8,,,0.9,E*05
!AIVDM,1,1,5,,13`ekT0P00PGpqTMwcd>4?v`2000,0*54
$WIMWD,23.5,T,22.5,M,4.1,N,2.1,M*5D
$WIMWV,307.7,R,0.0,N,A*20
$WIMWV,305.6,T,4.1,N,A*20
$IIXDR,C,C,,C,AIRTEMP,A,13.9,D,HEEL,A,2.5,D,TRIM,P,,B,BARO,A,A,1.0,D,RUDDER*16
$SDHDG,76.8,,,0.9,E*05
$GPGGA,115020,5229.6054,N,00517.8641,E,1,12,0.50,2,M,47.0,M,,*6F
$GPGLL,5229.6054,N,00517.8641,E,115020,A,A*43
$GPGSA,A,3,05,07,08,10,16,18,20,21,26,27,29,74,0.90,0.50,0.70*04
$GPGSV,3,1,12,05,03,023,27,07,08,336,37,08,06,276,32,10,11,161,39*76
$GPGSV,3,2,12,16,66,284,46,18,32,130,46,20,32,065,45,21,65,079,47*74
$GPGSV,3,3,12,26,68,195,48,27,40,278,42,29,12,089,38,74,10,187,47*76
$GPRMC,115020,A,5229.6054,N,00517.8643,E,4.5,87.7,150816,1.0,E,A*2E
$GPVTG,87.7,T,86.8,M,4.5,N,8.4,K,A*20
$GPZDA,115020,15,08,2016,-02,00*69
$GPAAM,,,,N,*38
$GPAPB,,,,,,,,,,,,,,,N*26
$GPBOD,,T,,M,,*47
$GPRMB,,,,,,,,,,,,,,N*04
$SDHDG,76.8,,,0.9,E*05
$SDHDG,76.8,,,0.9,E*05
$SDHDG,76.7,,,0.9,E*0A
!AIVDM,1,1,6,,B3`mtw@09@5wh57PqNrNKwP00000,0*00
$SDHDG,76.7,,,0.9,E*0A
$SDHDG,76.6,,,0.9,E*0B
!AIVDM,1,1,7,,13aFdc?P0QPGf@rN3:M:>gvb2000,0*40
$SDHDG,76.5,,,0.9,E*08
$SDHDG,76.5,,,0.9,E*08
$SDHDG,76.5,,,0.9,E*08
$GPXTE,,,,,N,N*5E
$SDDBT,12.8,f,3.9,M,2.1,F*34
$SDDPT,3.9,0.4,*75
$SDMTW,39.2,C*0C
$SDVLW,,N,2794.1,N,1556.3,N,1503.2,N*4C
$SDVHW,77.4,T,76.5,M,5.0,N,9.3,K*4D
$SDHDG,76.4,,,0.9,E*09
$WIMWD,23.5,T,22.6,M,4.1,N,2.1,M*5E
$WIMWV,310.3,R,0.0,N,A*22
$WIMWV,306.0,T,4.1,N,A*25
$IIXDR,C,C,,C,AIRTEMP,A,14.1,D,HEEL,A,2.8,D,TRIM,P,,B,BARO,A,A,1.2,D,RUDDER*16
$GPGGA,115021,5229.6054,N,00517.8662,E,1,12,0.50,2,M,47.0,M,,*6F
$SDHDG,76.4,,,0.9,E*09
$GPGLL,5229.6054,N,00517.8662,E,115021,A,A*43
$GPGSA,A,3,05,07,08,10,16,18,20,21,26,27,29,74,0.90,0.50,0.70*04
$GPGSV,3,1,12,05,03,023,27,07,08,336,37,08,06,276,32,10,11,161,39*76
$GPGSV,3,2,12,16,66,284,46,18,32,130,46,20,32,065,45,21,65,079,47*74
$GPGSV,3,3,12,26,68,195,48,27,40,278,42,29,12,089,38,74,10,187,47*76
$GPRMC,115021,A,5229.6054,N,00517.8664,E,4.5,88.0,150816,1.0,E,A*22
$GPVTG,88.0,T,87.1,M,4.5,N,8.4,K,A*20
$GPZDA,115021,15,08,2016,-02,00*68
$GPAAM,,,,N,*38
$GPAPB,,,,,,,,,,,,,,,N*26
$GPBOD,,T,,M,,*47
$GPRMB,,,,,,,,,,,,,,N*04
$SDHDG,76.4,,,0.9,E*09
$SDHDG,76.4,,,0.9,E*09
$SDHDG,76.4,,,0.9,E*09
$SDHDG,76.4,,,0.9,E*09
$SDHDG,76.3,,,0.9,E*0E
$SDHDG,76.3,,,0.9,E*0E
$SDHDG,76.3,,,0.9,E*0E
$SDHDG,76.2,,,0.9,E*0F
$GPXTE,,,,,N,N*5E
$SDDBT,12.8,f,3.9,M,2.1,F*34
$SDDPT,3.9,0.4,*75
$SDMTW,39.1,C*0F
$SDVLW,,N,2794.1,N,1556.3,N,1503.2,N*4C
$SDVHW,77.2,T,76.2,M,5.1,N,9.5,K*4B
$SDHDG,76.2,,,0.9,E*0F
$WIMWD,23.7,T,22.8,M,4.2,N,2.1,M*51
$WIMWV,308.0,R,0.0,N,A*28
$WIMWV,306.5,T,4.2,N,A*23
$IIXDR,C,C,,C,AIRTEMP,A,14.0,D,HEEL,A,2.5,D,TRIM,P,,B,BARO,A,A,1.4,D,RUDDER*1C
$GPGGA,115022,5229.6054,N,00517.8684,E,1,12,0.50,2,M,47.0,M,,*64
$GPGLL,5229.6054,N,00517.8684,E,115022,A,A*48
$SDHDG,76.2,,,0.9,E*0F
$GPGSA,A,3,05,07,08,10,16,18,20,21,26,27,29,74,0.90,0.50,0.70*04
$GPGSV,3,1,12,05,03,023,27,07,08,336,37,08,06,276,33,10,11,161,35*7B
$GPGSV,3,2,12,16,66,284,46,18,32,130,46,20,32,065,45,21,65,079,47*74
$GPGSV,3,3,12,26,68,195,47,27,40,278,42,29,12,089,38,74,10,187,47*79
$GPRMC,115022,A,5229.6054,N,00517.8684,E,4.6,87.1,150816,1.0,E,A*22
$GPVTG,87.1,T,86.2,M,4.6,N,8.5,K,A*2E
$GPZDA,115022,15,08,2016,-02,00*6B
$GPAAM,,,,N,*38
$GPAPB,,,,,,,,,,,,,,,N*26
$GPBOD,,T,,M,,*47
$GPRMB,,,,,,,,,,,,,,N*04
$SDHDG,76.2,,,0.9,E*0F
$SDHDG,76.1,,,0.9,E*0C
$SDHDG,76.1,,,0.9,E*0C
$SDHDG,76.0,,,0.9,E*0D
$SDHDG,76.0,,,0.9,E*0D
$SDHDG,76.0,,,0.9,E*0D
$SDHDG,75.9,,,0.9,E*07
!AIVDM,1,1,8,,13`oU;PP16PH93TN1WW2Cwvf2000,0*16
$SDHDG,75.9,,,0.9,E*07
$GPXTE,,,,,N,N*5E
$SDDBT,12.8,f,3.9,M,2.1,F*34
$SDDPT,3.9,0.4,*75
$SDMTW,39.1,C*0F
$SDVLW,,N,2794.1,N,1556.3,N,1503.2,N*4C
$SDVHW,76.8,T,75.9,M,5.1,N,9.5,K*48
$SDHDG,75.9,,,0.9,E*07
$WIMWD,23.8,T,22.8,M,4.2,N,2.2,M*5D
$WIMWV,309.2,R,0.0,N,A*2B
$WIMWV,306.9,T,4.2,N,A*2F
$IIXDR,C,C,,C,AIRTEMP,A,13.9,D,HEEL,A,3.0,D,TRIM,P,,B,BARO,A,A,1.5,D,RUDDER*17
$GPGGA,115023,5229.6056,N,00517.8704,E,1,12,0.50,2,M,47.0,M,,*6E
$GPGLL,5229.6056,N,00517.8704,E,115023,A,A*42
$SDHDG,75.9,,,0.9,E*07
$GPGSA,A,3,05,07,08,10,16,18,20,21,26,27,29,74,0.90,0.50,0.70*04
$GPGSV,3,1,12,05,03,023,27,07,08,336,37,08,06,276,33,10,11,161,35*7B
$GPGSV,3,2,12,16,66,284,46,18,32,130,46,20,32,065,45,21,65,079,47*74
$GPGSV,3,3,12,26,68,195,47,27,40,278,42,29,12,089,38,74,10,187,47*79
$GPRMC,115023,A,5229.6056,N,00517.8704,E,4.6,87.2,150816,1.0,E,A*2B
$GPVTG,87.2,T,86.3,M,4.6,N,8.5,K,A*2C
$GPZDA,115023,15,08,2016,-02,00*6A
$GPAAM,,,,N,*38
$GPAPB,,,,,,,,,,,,,,,N*26
$GPBOD,,T,,M,,*47
$GPRMB,,,,,,,,,,,,,,N*04
$SDHDG,76.0,,,0.9,E*0D
$SDHDG,76.0,,,0.9,E*0D
$SDHDG,76.1,,,0.9,E*0C
$SDHDG,76.2,,,0.9,E*0F
$SDHDG,76.2,,,0.9,E*0F
$SDHDG,76.2,,,0.9,E*0F
$SDHDG,76.3,,,0.9,E*0E
$SDHDG,76.2,,,0.9,E*0F
$GPXTE,,,,,N,N*5E
$SDDBT,12.8,f,3.9,M,2.1,F*34
$SDDPT,3.9,0.4,*75
$SDMTW,39.1,C*0F
$SDVLW,,N,2794.1,N,1556.3,N,1503.2,N*4C
$SDVHW,77.2,T,76.2,M,5.0,N,9.3,K*4C
$WIMWD,23.9,T,22.9,M,4.2,N,2.2,M*5D
$SDHDG,76.2,,,0.9,E*0F
$WIMWV,303.9,R,0.0,N,A*2A
$WIMWV,306.6,T,4.2,N,A*20
$IIXDR,C,C,,C,AIRTEMP,A,14.0,D,HEEL,A,2.8,D,TRIM,P,,B,BARO,A,A,1.6,D,RUDDER*13
$GPGGA,115024,5229.6057,N,00517.8725,E,1,12,0.50,3,M,47.0,M,,*6A
$GPGLL,5229.6057,N,00517.8725,E,115024,A,A*47
$GPGSA,A,3,05,07,08,10,16,18,20,21,26,27,29,74,0.90,0.50,0.70*04
$GPGSV,3,1,12,05,03,023,26,07,08,336,37,08,06,276,33,10,11,161,36*79
$GPGSV,3,2,12,16,66,284,46,18,32,130,45,20,32,065,44,21,65,079,47*76
$GPGSV,3,3,12,26,68,195,48,27,40,278,42,29,12,089,38,74,10,187,47*76
$SDHDG,76.2,,,0.9,E*0F
$GPRMC,115024,A,5229.6057,N,00517.8727,E,4.6,86.0,150816,1.0,E,A*2F
$GPVTG,86.0,T,85.0,M,4.6,N,8.5,K,A*2F
$GPZDA,115024,15,08,2016,-02,00*6D
$GPAAM,,,,N,*38
$GPAPB,,,,,,,,,,,,,,,N*26
$GPBOD,,T,,M,,*47
!AIVDM,1,1,9,,13aB:nhP0uPHdoRN2nkaqOvh2000,0*2D
$GPRMB,,,,,,,,,,,,,,N*04
$SDHDG,76.1,,,0.9,E*0C
$SDHDG,76.1,,,0.9,E*0C
$SDHDG,76.1,,,0.9,E*0C
$SDHDG,76.1,,,0.9,E*0C
$SDHDG,76.1,,,0.9,E*0C
$SDHDG,76.1,,,0.9,E*0C
$SDHDG,76.1,,,0.9,E*0C
$GPXTE,,,,,N,N*5E
$SDHDG,76.1,,,0.9,E*0C
$SDDBT,12.8,f,3.9,M,2.1,F*34
$SDDPT,3.9,0.4,*75
$SDMTW,39.1,C*0F
$SDVLW,,N,2794.1,N,1556.3,N,1503.2,N*4C
$SDVHW,77.0,T,76.1,M,4.9,N,9.2,K*44
$WIMWD,24.1,T,23.2,M,4.2,N,2.2,M*58
$WIMWV,310.1,R,0.0,N,A*20
$WIMWV,307.0,T,4.2,N,A*27
$IIXDR,C,C,,C,AIRTEMP,A,13.3,D,HEEL,A,2.7,D,TRIM,P,,B,BARO,A,A,1.6,D,RUDDER*18
$SDHDG,76.1,,,0.9,E*0C
$GPGGA,115025,5229.6058,N,00517.8746,E,1,12,0.50,3,M,47.0,M,,*61
$GPGLL,5229.6058,N,00517.8746,E,115025,A,A*4C
$GPGSA,A,3,05,07,08,10,16,18,20,21,26,27,29,74,0.90,0.50,0.70*04
$GPGSV,3,1,12,05,03,023,25,07,08,336,37,08,06,276,33,10,11,161,38*74
$GPGSV,3,2,12,16,66,284,45,18,32,130,45,20,32,065,44,21,65,079,47*75
$GPGSV,3,3,12,26,68,195,48,27,40,278,41,29,12,089,37,74,10,187,47*7A
$GPRMC,115025,A,5229.6058,N,00517.8748,E,4.6,86.7,150816,1.0,E,A*2F
$SDHDG,76.1,,,0.9,E*0C
$GPVTG,86.7,T,85.7,M,4.6,N,8.5,K,A*2F
$GPZDA,115025,15,08,2016,-02,00*6C
$GPAAM,,,,N,*38
$GPAPB,,,,,,,,,,,,,,,N*26
$GPBOD,,T,,M,,*47
$GPRMB,,,,,,,,,,,,,,N*04
$SDHDG,76.1,,,0.9,E*0C
$SDHDG,76.1,,,0.9,E*0C
$SDHDG,76.1,,,0.9,E*0C
$SDHDG,76.1,,,0.9,E*0C
$SDHDG,76.1,,,0.9,E*0C
$SDHDG,76.1,,,0.9,E*0C
$SDHDG,76.1,,,0.9,E*0C
$GPXTE,,,,,N,N*5E
$SDDBT,12.8,f,3.9,M,2.1,F*34
$SDDPT,3.9,0.4,*75
$SDMTW,39.1,C*0F
$SDVLW,,N,2794.1,N,1556.3,N,1503.2,N*4C
$SDHDG,76.1,,,0.9,E*0C
$SDVHW,77.1,T,76.1,M,4.8,N,9.0,K*46
$WIMWD,24.1,T,23.2,M,4.2,N,2.2,M*58
$WIMWV,307.7,R,0.0,N,A*20
$WIMWV,307.0,T,4.2,N,A*27
$IIXDR,C,C,,C,AIRTEMP,A,14.0,D,HEEL,A,2.6,D,TRIM,P,,B,BARO,A,A,1.8,D,RUDDER*13
$SDHDG,76.1,,,0.9,E*0C
$GPGGA,115026,5229.6058,N,00517.8761,E,1,12,0.50,3,M,47.0,M,,*67
$GPGLL,5229.6058,N,00517.8761,E,115026,A,A*4A
$GPGSA,A,3,05,07,08,10,16,18,20,21,26,27,29,74,0.90,0.50,0.70*04
$GPGSV,3,1,12,05,03,023,25,07,08,336,37,08,06,276,33,10,11,161,38*74
$GPGSV,3,2,12,16,66,284,45,18,32,130,45,20,32,065,44,21,65,079,47*75
$GPGSV,3,3,12,26,68,195,48,27,40,278,41,29,12,089,37,74,10,187,47*7A
$GPRMC,115026,A,5229.6058,N,00517.8761,E,4.6,87.0,150816,1.0,E,A*21
$GPVTG,87.0,T,86.1,M,4.6,N,8.5,K,A*2C
$SDHDG,76.2,,,0.9,E*0F
$GPZDA,115026,15,08,2016,-02,00*6F
$GPAAM,,,,N,*38
$GPAPB,,,,,,,,,,,,,,,N*26
$GPBOD,,T,,M,,*47
$GPRMB,,,,,,,,,,,,,,N*04
$SDHDG,76.2,,,0.9,E*0F
$SDHDG,76.3,,,0.9,E*0E
!AIVDM,1,1,0,,13bFNF0P00PHQFjN5maP0?vl2000,0*4C
$SDHDG,76.3,,,0.9,E*0E
$SDHDG,76.3,,,0.9,E*0E
$SDHDG,76.4,,,0.9,E*09
$SDHDG,76.4,,,0.9,E*09
$SDHDG,76.4,,,0.9,E*09
$GPXTE,,,,,N,N*5E
$SDDBT,12.9,f,3.9,M,2.1,F*35
$SDDPT,3.9,0.4,*75
$SDMTW,39.1,C*0F
$SDVLW,,N,2794.1,N,1556.3,N,1503.2,N*4C
$SDVHW,77.3,T,76.4,M,4.8,N,9.0,K*41
$SDHDG,76.4,,,0.9,E*09
$WIMWD,24.3,T,23.3,M,4.2,N,2.2,M*5B
$WIMWV,308.5,R,0.0,N,A*2D
$WIMWV,306.9,T,4.2,N,A*2F
$IIXDR,C,C,,C,AIRTEMP,A,13.5,D,HEEL,A,2.9,D,TRIM,P,,B,BARO,A,A,1.8,D,RUDDER*1E
$SDHDG,76.3,,,0.9,E*0E
$GPGGA,115027,5229.6059,N,00517.8786,E,1,12,0.50,3,M,47.0,M,,*6E
$GPGLL,5229.6059,N,00517.8786,E,115027,A,A*43
$GPGSA,A,3,05,07,08,10,16,18,20,21,26,27,29,74,0.90,0.50,0.70*04
$GPGSV,3,1,12,05,03,023,25,07,08,336,36,08,06,276,32,10,11,161,40*7B
$GPGSV,3,2,12,16,66,284,45,18,32,130,45,20,32,065,44,21,65,079,47*75
$GPGSV,3,3,12,26,68,195,48,27,40,278,41,29,12,089,37,74,10,187,47*7A
$GPRMC,115027,A,5229.6059,N,00517.8788,E,4.6,84.6,150816,1.0,E,A*23
$GPVTG,84.6,T,83.7,M,4.6,N,8.5,K,A*2A
$GPZDA,115027,15,08,2016,-02,00*6E
$GPAAM,,,,N,*38
$GPAPB,,,,,,,,,,,,,,,N*26
$GPBOD,,T,,M,,*47
$SDHDG,76.3,,,0.9,E*0E
$GPRMB,,,,,,,,,,,,,,N*04
$SDHDG,76.3,,,0.9,E*0E
$SDHDG,76.3,,,0.9,E*0E
$SDHDG,76.3,,,0.9,E*0E
$SDHDG,76.4,,,0.9,E*09
$SDHDG,76.4,,,0.9,E*09
!AIVDM,1,1,1,,13aN3=gP00PHpoBN3?Cf4?vn2000,0*71
$SDHDG,76.5,,,0.9,E*08
$SDHDG,76.5,,,0.9,E*08
$GPXTE,,,,,N,N*5E
$SDDBT,12.8,f,3.9,M,2.1,F*34
$SDDPT,3.9,0.4,*75
$SDMTW,39.1,C*0F
$SDVLW,,N,2794.1,N,1556.3,N,1503.2,N*4C
$SDVHW,77.5,T,76.5,M,4.8,N,9.0,K*46
$SDHDG,76.5,,,0.9,E*08
$WIMWD,24.2,T,23.2,M,4.2,N,2.2,M*5B
$WIMWV,305.9,R,0.0,N,A*2C
$WIMWV,306.7,T,4.2,N,A*21
$IIXDR,C,C,,C,AIRTEMP,A,13.6,D,HEEL,A,2.5,D,TRIM,P,,B,BARO,A,A,2.0,D,RUDDER*1A
$GPGGA,115028,5229.6059,N,00517.8807,E,1,12,0.50,3,M,47.0,M,,*67
$SDHDG,76.6,,,0.9,E*0B
$GPGLL,5229.6059,N,00517.8807,E,115028,A,A*4A
$GPGSA,A,3,05,07,08,10,16,18,20,21,26,27,29,74,0.90,0.50,0.70*04
$GPGSV,3,1,12,05,03,023,26,07,08,336,36,08,06,276,32,10,11,161,39*76
$GPGSV,3,2,12,16,66,284,45,18,32,130,46,20,32,065,44,21,65,079,47*76
$GPGSV,3,3,12,26,68,195,48,27,40,278,40,29,12,089,38,74,10,187,47*74
$GPRMC,115028,A,5229.6060,N,00517.8809,E,4.6,86.4,150816,1.0,E,A*20
$GPVTG,86.4,T,85.4,M,4.6,N,8.5,K,A*2F
$GPZDA,115028,15,08,2016,-02,00*61
$GPAAM,,,,N,*38
$GPAPB,,,,,,,,,,,,,,,N*26
$GPBOD,,T,,M,,*47
$GPRMB,,,,,,,,,,,,,,N*04
$SDHDG,76.6,,,0.9,E*0B
$SDHDG,76.6,,,0.9,E*0B
$SDHDG,76.7,,,0.9,E*0A
$SDHDG,76.7,,,0.9,E*0A
$SDHDG,76.7,,,0.9,E*0A
$SDHDG,76.8,,,0.9,E*05
!AIVDM,1,1,2,,H3aOARP<P48hEF22222222222200,0*48
!AIVDM,1,1,3,,H3aOARP<P48hEF22222222222200,0*49
$SDHDG,76.8,,,0.9,E*05
$SDHDG,76.8,,,0.9,E*05
$GPXTE,,,,,N,N*5E
$SDDBT,12.8,f,3.9,M,2.1,F*34
$SDDPT,3.9,0.4,*75
$SDMTW,39.1,C*0F
$SDVLW,,N,2794.1,N,1556.3,N,1503.2,N*4C
$SDVHW,77.7,T,76.8,M,4.9,N,9.1,K*49
$SDHDG,76.8,,,0.9,E*05
$WIMWD,24.1,T,23.2,M,4.3,N,2.2,M*59
$WIMWV,311.1,R,0.0,N,A*21
$WIMWV,306.3,T,4.3,N,A*24
$IIXDR,C,C,,C,AIRTEMP,A,13.7,D,HEEL,A,2.9,D,TRIM,P,,B,BARO,A,A,1.9,D,RUDDER*1D
!AIVDM,1,1,4,,13aIk>g000PHm9DN2oQf478r2000,0*1C
$GPGGA,115029,5229.6060,N,00517.8827,E,1,12,0.50,3,M,47.0,M,,*6E
$SDHDG,76.8,,,0.9,E*05
$GPGLL,5229.6060,N,00517.8827,E,115029,A,A*43
$GPGSA,A,3,05,07,08,10,16,18,20,21,26,27,29,74,0.90,0.50,0.70*04
$GPGSV,3,1,12,05,03,023,26,07,08,336,36,08,06,276,32,10,11,161,39*76
$GPGSV,3,2,12,16,66,284,45,18,32,130,46,20,32,065,44,21,65,079,47*76
$GPGSV,3,3,12,26,68,195,48,27,40,278,40,29,12,089,38,74,10,187,47*74
$GPRMC,115029,A,5229.6060,N,00517.8829,E,4.6,85.4,150816,1.0,E,A*20
$GPVTG,85.4,T,84.5,M,4.6,N,8.5,K,A*2C
$GPZDA,115029,15,08,2016,-02,00*60
$GPAAM,,,,N,*38
$GPAPB,,,,,,,,,,,,,,,N*26
$GPBOD,,T,,M,,*47
$GPRMB,,,,,,,,,,,,,,N*04
$SDHDG,76.7,,,0.9,E*0A
!AIVDM,1,1,5,,E>jN6<?76@1WPab3bPa2@LtP0000:usB?9TV@00000000?,4*37
$SDHDG,76.7,,,0.9,E*0A
$SDHDG,76.7,,,0.9,E*0A
$SDHDG,76.7,,,0.9,E*0A
!AIVDM,1,1,6,,33aDr`EP1;PH=>`N1l72Iwvr2000,0*2C
$SDHDG,76.8,,,0.9,E*05
$SDHDG,76.8,,,0.9,E*05
$SDHDG,76.8,,,0.9,E*05
$SDHDG,76.9,,,0.9,E*04
$GPXTE,,,,,N,N*5E
$SDDBT,12.8,f,3.9,M,2.1,F*34
$SDDPT,3.9,0.4,*75
$SDMTW,39.1,C*0F
$SDVLW,,N,2794.1,N,1556.3,N,1503.2,N*4C
$SDVHW,77.9,T,76.9,M,4.9,N,9.1,K*46
$SDHDG,76.9,,,0.9,E*04
$WIMWD,24.2,T,23.2,M,4.3,N,2.2,M*5A
