$GPRMC,085859.000,A,5420.4611,N,01330.4455,E,3.37,125.79,300613,,,A*6F
!AIVDM,1,1,,A,4020tbAumg8s0Pt3BfO4gjW0053d,0*03
$GPRMC,085900.000,A,5420.4605,N,01330.4468,E,3.31,132.13,300613,,,A*65
!AIVDM,1,1,,A,139KcP0000PwbMTO2H9@0CCn0<0S,0*44
!AIVDM,1,1,,A,139fvv0P00Puk50O63eh0?v2280u,0*13
!AIVDM,1,1,,A,339L11PPBlPvp3FO09tF1Dl40000,0*07
$GPRMC,085901.000,A,5420.4597,N,01330.4479,E,3.21,138.20,300613,,,A*67
!AIVDM,1,1,,A,139FFT000=PvJ>4O:?U3NE<20<0U,0*62
$GPRMC,085902.000,A,5420.4590,N,01330.4490,E,3.43,141.62,300613,,,A*68
!AIVDM,1,1,,A,139Jv20P290v0;TO5218bwv40@2?,0*0A
$GPRMC,085903.000,A,5420.4581,N,01330.4499,E,3.34,145.19,300613,,,A*68
$GPRMC,085904.000,A,5420.4573,N,01330.4508,E,3.38,149.23,300613,,,A*62
!AIVDM,1,1,,A,339L11PPBmPvp8VO09@Uull<00eA,0*7A
$GPRMC,085905.000,A,5420.4563,N,01330.4516,E,3.43,151.77,300613,,,A*69
$GPRMC,085906.000,A,5420.4553,N,01330.4523,E,3.54,157.66,300613,,,A*6F
!AIVDM,1,1,,A,139L<e0P1s0vAStO9WJ=Ngw60@DV,0*56
$GPRMC,085907.000,A,5420.4543,N,01330.4530,E,3.50,158.81,300613,,,A*6F
!AIVDM,1,1,,A,14aFID002:Q0BilO3eeM2:F@J@54,0*13
$GPRMC,085908.000,A,5420.4534,N,01330.4535,E,3.55,163.93,300613,,,A*6B
!AIVDM,1,1,,A,13A@M<3P?w<tSF0l4Q@>4?wv0d0C,0*48
$GPRMC,085909.000,A,5420.4524,N,01330.4540,E,3.59,163.20,300613,,,A*6D
$GPRMC,085910.000,A,5420.4513,N,01330.4543,E,3.65,169.71,300613,,,A*63
$GPRMC,085911.000,A,5420.4502,N,01330.4545,E,3.64,172.62,300613,,,A*6D
$GPRMC,085912.000,A,5420.4492,N,01330.4547,E,3.57,171.15,300613,,,A*67
!AIVDM,1,1,,A,139J<<?01L0vchHO=SMnrmbL053d,0*41
$GPRMC,085913.000,A,5420.4482,N,01330.4550,E,3.52,172.46,300613,,,A*61
$GPRMC,085914.000,A,5420.4473,N,01330.4552,E,3.59,174.31,300613,,,A*67
!AIVDM,1,1,,A,13alul001PPvi52O2`48RVp20D0q,0*7B
!AIVDM,1,1,,A,13b6G6001L0vDofOB4s5PlHP00S0,0*4F
!AIVDM,1,1,,A,339Jv20P2;0uwtNO50`HOwvL01hi,0*10
$GPRMC,085915.000,A,5420.4463,N,01330.4553,E,3.52,174.85,300613,,,A*62
$GPRMC,085916.000,A,5420.4452,N,01330.4554,E,3.60,174.05,300613,,,A*6D
$GPRMC,085917.000,A,5420.4443,N,01330.4556,E,3.55,172.30,300613,,,A*68
!AIVDM,1,1,,A,139aWuP01I0vc82O=@G=qc4V253d,0*01
!AIVDM,1,1,,A,33aDBj001BPtnu:O2FulOCF:QRk1,0*56
$GPRMC,085918.000,A,5420.4433,N,01330.4557,E,4.00,184.06,300613,,,A*6A
!AIVDM,1,1,,A,139LE40P020vrVpO6BTGEOv`053d,0*36
$GPRMC,085919.000,A,5420.4422,N,01330.4557,E,3.91,174.97,300613,,,A*63
!AIVDM,1,1,,A,139OIS0PAi0vTTTO<IIRC1d2053d,0*45
!AIVDM,1,1,,A,14aFID002:Q0BWlO3g<=2:FVJ8;t,0*26
!AIVDM,1,1,,A,4020tbAumg8sDPt3BfO4gjW0053d,0*77
$GPRMC,085920.000,A,5420.4412,N,01330.4559,E,3.62,167.63,300613,,,A*61
$GPRMC,085921.000,A,5420.4402,N,01330.4564,E,3.69,161.53,300613,,,A*61
!AIVDM,1,1,,A,139fvv0P00Puk4nO63g00?vd20RS,0*0C
$GPRMC,085922.000,A,5420.4391,N,01330.4570,E,3.72,160.69,300613,,,A*68
!AIVDM,1,1,,A,139FFT000>PvJA2O:?Tkem@f0@=d,0*2A
!AIVDM,1,1,,A,4020tliumg8sGPw=A8NuR57000S:,0*73
!AIVDM,1,1,,A,33tqbl002jPv@CnODO`V6lpb00U@,0*11
$GPRMC,085923.000,A,5420.4380,N,01330.4576,E,3.87,160.56,300613,,,A*69
$GPRMC,085924.000,A,5420.4369,N,01330.4584,E,3.92,153.54,300613,,,A*62
$GPRMC,085925.000,A,5420.4359,N,01330.4592,E,3.90,150.35,300613,,,A*61
$GPRMC,085926.000,A,5420.4349,N,01330.4602,E,3.92,145.19,300613,,,A*61
!AIVDM,1,1,,A,139Jv20P280uwg>O4w9`;wvl0H@S,0*7A
$GPRMC,085927.000,A,5420.4340,N,01330.4613,E,3.91,142.00,300613,,,A*65
!AIVDM,2,1,9,A,539FFT02=d;<@89D00058dtp400000000000000o1@q775hV0:4m4PC4mCQ0,0*2C
!AIVDM,2,2,9,A,00000000000,2*2D
$GPRMC,085928.000,A,5420.4331,N,01330.4626,E,3.93,140.15,300613,,,A*6E
!AIVDM,1,1,,A,13A@M<3P?w<tSF0l4Q@>4?wv0d0C,0*48
!AIVDM,1,1,,A,339L11POjiPvpRdO04nF@U8t00PA,0*04
$GPRMC,085929.000,A,5420.4323,N,01330.4638,E,3.94,138.60,300613,,,A*69
!AIVDM,1,1,,A,4020tmAumg8sNPw=A8NuR57000S:,0*53
$GPRMC,085930.000,A,5420.4314,N,01330.4652,E,3.94,135.72,300613,,,A*67
!AIVDM,1,1,,A,139W82P00pPvfVlO=>9hvPe00@Bk,0*2D
$GPRMC,085931.000,A,5420.4306,N,01330.4666,E,3.95,131.74,300613,,,A*61
!AIVDM,1,1,,A,14`9?l00150vEs`ODms<T9dt08C7,0*15
!AIVDM,1,1,,A,139J<<?PAM0vci<O=QO6umS208CG,0*6B
!AIVDM,1,1,,A,14aFID002:Q0BKvO3ht=2:G0JD0o,0*6C
$GPRMC,085932.000,A,5420.4298,N,01330.4681,E,4.00,129.71,300613,,,A*6A
!AIVDM,1,1,,A,339L11PPBiPvpU4O04CFBTq400eP,0*67
$GPRMC,085933.000,A,5420.4291,N,01330.4696,E,3.87,123.42,300613,,,A*66
!AIVDM,2,1,0,A,53aDBj4000010;C3WT118Tp<E=<00000000000151q1711Ni12PQDS2CP000,0*56
!AIVDM,2,2,0,A,00000000000,2*24
!AIVDM,1,1,,A,13alul001OPvhkJO2VKHRVpb08;j,0*46
$GPRMC,085934.000,A,5420.4283,N,01330.4712,E,3.93,128.07,300613,,,A*60
$GPRMC,085935.000,A,5420.4275,N,01330.4727,E,3.81,126.11,300613,,,A*64
!AIVDM,1,1,,A,13b6G6001L0vE9rOB3?UQDI:0<1=,0*06
$GPRMC,085936.000,A,5420.4267,N,01330.4741,E,3.87,128.56,300613,,,A*6F
!AIVDM,1,1,,A,83aDBj0j2d<dtduLeAT0ghOH39L0,0*63
$GPRMC,085937.000,A,5420.4260,N,01330.4755,E,3.67,130.95,300613,,,A*64
!AIVDM,1,1,,A,13aDBj001BPtoB>O2F@DNSFhQd08,0*5C
!AIVDM,1,1,,A,139aWuP01M0vc6HO=BGN0c5>2@Fq,0*3D
$GPRMC,085938.000,A,5420.4252,N,01330.4769,E,3.61,128.79,300613,,,A*68
!AIVDM,1,1,,A,139LE40P010vrVrO6BSo7Ow@08GD,0*12
!AIVDM,1,1,,A,139KcP0000PwbMfO2H:00CE>053d,0*6E
!AIVDM,1,1,,A,339OIS0PAh0vTwDO<JoQviLb00si,0*0E
$GPRMC,085939.000,A,5420.4244,N,01330.4781,E,3.75,137.18,300613,,,A*64
!AIVDM,1,1,,A,139Jv20P2;0uwOfO4uUpPww>0D0=,0*5D
!AIVDM,1,1,,A,4020tbAumg8s`Pt3BfO4gjW0053d,0*53
$GPRMC,085940.000,A,5420.4236,N,01330.4794,E,3.86,134.90,300613,,,A*64
!AIVDM,1,1,,A,139fvv0P00Puk4jO63h1EwwB2D0F,0*1F
!AIVDM,1,1,,A,339L11POjhPvpf4O02sF6luD00`Q,0*68
$GPRMC,085941.000,A,5420.4228,N,01330.4806,E,3.82,140.21,300613,,,A*63
$GPRMC,085942.000,A,5420.4220,N,01330.4819,E,4.11,133.80,300613,,,A*64
!AIVDM,1,1,,A,139FFT000>PvJG<O:?TSemAF0D0U,0*03
!AIVDM,1,1,,A,4020tliumg8scPw=A8NuR57000S:,0*57
$GPRMC,085943.000,A,5420.4211,N,01330.4832,E,3.99,135.98,300613,,,A*66
!AIVDM,1,1,,A,14aFID002;Q0BA4O3jSe2JGHJ<0h,0*2F
$GPRMC,085944.000,A,5420.4203,N,01330.4844,E,3.82,139.97,300613,,,A*6A
!AIVDM,1,1,,A,339L11PPBjPvpk0O021n9TsL00b0,0*64
$GPRMC,085945.000,A,5420.4195,N,01330.4857,E,4.00,133.70,300613,,,A*6B
$GPRMC,085946.000,A,5420.4188,N,01330.4869,E,3.71,136.25,300613,,,A*6D
!AIVDM,1,1,,A,139L<e0P1r0vAB8O9dQeQ?vN0<0e,0*7F
$GPRMC,085947.000,A,5420.4179,N,01330.4881,E,3.85,139.15,300613,,,A*63
$GPRMC,085948.000,A,5420.4171,N,01330.4893,E,3.75,136.88,300613,,,A*63
$GPRMC,085949.000,A,5420.4162,N,01330.4906,E,3.91,139.58,300613,,,A*65
!AIVDM,1,1,,A,13A@M<3P?w<tSF0l4Q@>4?wv0l0D,0*47
!AIVDM,1,1,,A,4020tmAumg8sjPw=A8NuR57000S:,0*77
$GPRMC,085950.000,A,5420.4154,N,01330.4918,E,3.91,137.87,300613,,,A*6B
!AIVDM,1,1,,A,139Jv20P290uw@lO4tI`p?wT0HNM,0*57
$GPRMC,085951.000,A,5420.4145,N,01330.4929,E,3.64,139.16,300613,,,A*64
$GPRMC,085952.000,A,5420.4137,N,01330.4940,E,3.81,141.67,300613,,,A*6F
!AIVDM,1,1,,A,339OIS001h0vU?FO<KsAoiI40000,0*08
!AIVDM,1,1,,A,139L11POjkPvpt:O00Wn4Twd08Ob,0*77
!AIVDM,1,1,,A,139J<<?01L0vclLO=OKVk5Od0<0u,0*3C
$GPRMC,085953.000,A,5420.4129,N,01330.4951,E,3.44,141.65,300613,,,A*6A
!AIVDM,1,1,,A,13alul001NPvhQnO2TlHS6qB0580,0*68
$GPRMC,085954.000,A,5420.4121,N,01330.4961,E,3.60,142.18,300613,,,A*69
!AIVDM,1,1,,A,13b6G6001L0vEJ6OB1gmSDKh0HPi,0*40
$GPRMC,085955.000,A,5420.4112,N,01330.4972,E,3.75,140.48,300613,,,A*69
!AIVDM,1,1,,A,14aFID002;Q0B66O3l;M2JGhJ8Q7,0*06
$GPRMC,085956.000,A,5420.4104,N,01330.4982,E,3.61,146.04,300613,,,A*69
!AIVDM,1,1,,A,B39kFnP0D`?fcV7gjuo<?wtUoP06,0*49
$GPRMC,085957.000,A,5420.4095,N,01330.4992,E,3.83,144.04,300613,,,A*6E
!AIVDM,1,1,,A,B39Tj:00C0?aAO7k8P<Okwu5kP06,0*6F
$GPRMC,085958.000,A,5420.4086,N,01330.5003,E,3.76,144.70,300613,,,A*6A
!AIVDM,1,1,,A,139LE40P010vrVpO6BTVsgv00D0g,0*1B
!AIVDM,1,1,,A,13aDBj001BPtoabO2ENDNSGJQd08,0*0D
$GPRMC,085959.000,A,5420.4077,N,01330.5013,E,3.69,144.40,300613,,,A*69
!AIVDM,1,1,,A,4020tbAumg900Pt3BfO4gjW000S:,0*7A
!AIVDM,1,1,,A,139aWuP01O0vc4vO=DWerc422L0g,0*1D
$GPRMC,090000.000,A,5420.4068,N,01330.5023,E,3.84,143.17,300613,,,A*63
!AIVDM,1,1,,A,139fvv0P00Puk5:O63g1J?v22580,0*78
$GPRMC,090001.000,A,5420.4060,N,01330.5034,E,3.64,146.73,300613,,,A*65
!AIVDM,1,1,,A,139FFT000>PvJJFO:?TCjmD4081S,0*67
$GPRMC,090002.000,A,5420.4051,N,01330.5044,E,3.86,144.14,300613,,,A*6C
!AIVDM,1,1,,A,139Jv20P280uvw8O4s<Hr?v40<0=,0*77
$GPRMC,090003.000,A,5420.4041,N,01330.5054,E,3.80,145.87,300613,,,A*60
$GPRMC,090004.000,A,5420.4032,N,01330.5065,E,3.97,141.66,300613,,,A*6C
!AIVDM,1,1,,A,339L11POjfPvq8@Nwvfn3E<<00Wi,0*60
$GPRMC,090005.000,A,5420.4023,N,01330.5076,E,3.74,144.09,300613,,,A*6E
$GPRMC,090006.000,A,5420.4014,N,01330.5086,E,3.61,145.45,300613,,,A*6B
!AIVDM,1,1,,A,139L<e0P1s0vA:0O9g6eSgw60<0e,0*49
$GPRMC,090007.000,A,5420.4005,N,01330.5096,E,3.78,142.83,300613,,,A*6E
!AIVDM,2,1,1,A,53@o9Ph2:GTpuDhN3:0l`thpE:q:22222222220Q1pO<540Ht6@000000000,0*35
!AIVDM,2,2,1,A,00000000000,2*25
!AIVDM,1,1,,A,14aFID002<Q0As>O3ml=3bF@J<0k,0*50
$GPRMC,090008.000,A,5420.3996,N,01330.5107,E,3.89,144.39,300613,,,A*65
!AIVDM,1,1,,A,339L11POjfPvq;2Nwv0VAU:D00`P,0*6D
!AIVDM,1,1,,A,13A@M<3P?w<tSF0l4Q@>4?wv0`5k,0*61
$GPRMC,090009.000,A,5420.3987,N,01330.5117,E,3.61,144.31,300613,,,A*6B
!AIVDM,1,1,,A,4020tmAumg90:Pw=A8NuR5700L00,0*70
$GPRMC,090010.000,A,5420.3979,N,01330.5128,E,3.91,142.36,300613,,,A*60
!AIVDM,1,1,,A,33tqbl002iPvA7JODG>F44pB00W@,0*7D
$GPRMC,090011.000,A,5420.3970,N,01330.5139,E,3.81,141.93,300613,,,A*65
$GPRMC,090012.000,A,5420.3962,N,01330.5149,E,3.67,144.83,300613,,,A*6E
!AIVDM,2,1,2,A,539LE42w35V0@a<t000ltDp<PME@00000000000t10I265SP060000000000,0*59
!AIVDM,2,2,2,A,00000000000,2*26
!AIVDM,1,1,,A,14`9?l00150vEPhODpA<R9dF0<0q,0*14
!AIVDM,1,1,,A,339L11POjhPvq>`Nwu5FEm@L0000,0*5C
$GPRMC,090013.000,A,5420.3954,N,01330.5159,E,3.64,142.40,300613,,,A*61
!AIVDM,1,1,,A,19t6hrhP000v<0rO;=t@0?vJ0D0:,0*46
!AIVDM,1,1,,A,13b6G60PAK0vEc2OB0<USlJP0@8s,0*73
!AIVDM,1,1,,A,14``mC000A10SovO94NR8roT0@8t,0*24
$GPRMC,090014.000,A,5420.3946,N,01330.5170,E,3.58,142.75,300613,,,A*67
!AIVDM,1,1,,A,13alul001OPvh@>O2S<8S6p20@0=,0*0E
!AIVDM,1,1,,A,139Jv20P250uvfDO4quHiwvL0D0;,0*09
$GPRMC,090015.000,A,5420.3938,N,01330.5180,E,3.55,145.21,300613,,,A*6B
!AIVDM,1,1,,A,339LdA50000vNP@Nw6lK1IhRR000,0*63
$GPRMC,090016.000,A,5420.3930,N,01330.5189,E,3.51,142.54,300613,,,A*68
$GPRMC,090017.000,A,5420.3923,N,01330.5199,E,3.40,144.53,300613,,,A*6B
!AIVDM,1,1,,A,339L11PPBiPvqADNwtEVIU8T00PQ,0*05
!AIVDM,1,1,,A,139aWuPOiL0vc3fO=FVusK6V00T6,0*39
!AIVDM,1,1,,A,13aDBj001BPtowlO2DfDNCF:Qd08,0*5D
$GPRMC,090018.000,A,5420.3915,N,01330.5208,E,3.57,145.21,300613,,,A*68
!AIVDM,1,1,,A,139LE40P010vrW6O6BQG2gv`00RW,0*7F
$GPRMC,090019.000,A,5420.3906,N,01330.5217,E,3.58,148.29,300613,,,A*6F
!AIVDM,1,1,,A,139OIS0PAi0vUgvO<N;1jiD200Ri,0*7B
!AIVDM,1,1,,A,14aFID002<Q0Ai<O3oCu2rFVJ580,0*70
!AIVDM,1,1,,A,4020tbAumg90DPt3BfO4gjW000S:,0*0E
!AIVDM,1,1,,A,139KcP0000PwbMVO2H:@0CDV0580,0*18
$GPRMC,090020.000,A,5420.3898,N,01330.5227,E,3.55,145.54,300613,,,A*6A
!AIVDM,1,1,,A,139fvv0P00Puk52O63fA?wvb2@<b,0*4F
!AIVDM,1,1,,A,339L11P02jPvqCdNwsinHU:d00aP,0*24
$GPRMC,090021.000,A,5420.3890,N,01330.5236,E,3.74,148.42,300613,,,A*6A
$GPRMC,090022.000,A,5420.3880,N,01330.5245,E,3.63,149.10,300613,,,A*6C
!AIVDM,1,1,,A,139FFT000>PvJM>O:?;3omHd0<0U,0*5D
!AIVDM,1,1,,A,4020tliumg90GPw=A8NuR5700L00,0*24
$GPRMC,090023.000,A,5420.3871,N,01330.5254,E,3.82,146.67,300613,,,A*63
$GPRMC,090024.000,A,5420.3861,N,01330.5262,E,3.68,150.81,300613,,,A*6B
!AIVDM,1,1,,A,339L11PPBiPvqGRNwro6GU<l0000,0*6A
$GPRMC,090025.000,A,5420.3853,N,01330.5272,E,3.80,145.90,300613,,,A*68
$GPRMC,090026.000,A,5420.3844,N,01330.5281,E,3.49,148.18,300613,,,A*69
!AIVDM,1,1,,A,139Jv20P200uvN2O4pf`ggvl0D0;,0*56
$GPRMC,090027.000,A,5420.3836,N,01330.5290,E,3.65,145.48,300613,,,A*6B
$GPRMC,090028.000,A,5420.3828,N,01330.5300,E,3.62,145.90,300613,,,A*61
!AIVDM,1,1,,A,13A@M<3P?w<tSF0l4Q@>4?wv0`AO,0*31
!AIVDM,1,1,,A,339L11P02iPvqJTNwr86Gm2t00Ui,0*34
$GPRMC,090029.000,A,5420.3820,N,01330.5310,E,3.80,147.54,300613,,,A*6F
!AIVDM,1,1,,A,4020tmAumg90NPw=A8NuR5700L00,0*04
$GPRMC,090030.000,A,5420.3811,N,01330.5319,E,3.66,148.09,300613,,,A*63
!AIVDM,1,1,,A,339LiU5000Psb5rO9Ljh0I<r0000,0*63
$GPRMC,090031.000,A,5420.3803,N,01330.5328,E,3.68,146.39,300613,,,A*60
!AIVDM,1,1,,A,139J<<?PAL0vcrfO=KVFimM20580,0*5B
!AIVDM,1,1,,A,14aFID002<Q0AUHO3q5M3JG0J@CH,0*40
!AIVDM,1,1,,A,139L7KP0000saw8O9LirA9I20<0R,0*6C
$GPRMC,090032.000,A,5420.3793,N,01330.5338,E,3.72,146.27,300613,,,A*60
!AIVDM,1,1,,A,19t6hrhP000v<0rO;=t@0?w00580,0*4E
!AIVDM,1,1,,A,339L11PPBfPvqNfNwqKV=Dq400VP,0*67
$GPRMC,090033.000,A,5420.3784,N,01330.5348,E,3.94,146.86,300613,,,A*63
!AIVDM,2,1,3,A,539KcP000000@84N221Hu8l4pr0`4qA`Dr22220k1P<244@P04ThD`3k`15E,0*7E
!AIVDM,2,2,3,A,6H888888880,2*59
!AIVDM,1,1,,A,13alul001OPvgvdO2QTHRnpb0584,0*0A
$GPRMC,090034.000,A,5420.3776,N,01330.5358,E,3.65,144.90,300613,,,A*63
$GPRMC,090035.000,A,5420.3767,N,01330.5368,E,3.66,144.40,300613,,,A*6F
!AIVDM,1,1,,A,13b6G6001K0vEtDOAvRUUDM:08ES,0*4F
$GPRMC,090036.000,A,5420.3759,N,01330.5379,E,3.76,141.82,300613,,,A*6B
!AIVDM,1,1,,A,339L11POjePvqRfNwpgF;U1<0000,0*2B
!AIVDM,1,1,,A,14aKQL001P0vL98O@jI<F9s80t0F,0*68
$GPRMC,090037.000,A,5420.3750,N,01330.5389,E,3.80,147.55,300613,,,A*69
!AIVDM,1,1,,A,13aDBj001BPtpDtO2D0lNkFhQ`FR,0*75
!AIVDM,1,1,,A,139aWuP01P0vc3NO=HT@0s;>2<0h,0*39
$GPRMC,090038.000,A,5420.3742,N,01330.5399,E,3.88,144.69,300613,,,A*60
!AIVDM,1,1,,A,139LE40P000vrW8O6BPo;ww@0580,0*69
!AIVDM,1,1,,A,139KcP0000PwbMTO2H:@0CC<00S6,0*1F
!AIVDM,1,1,,A,339OIS0PAh0vV6BO<OuiTA2b00s1,0*40
$GPRMC,090039.000,A,5420.3733,N,01330.5409,E,3.67,146.88,300613,,,A*65
!AIVDM,1,1,,A,139Jv20P260uv=DO4oDpSOw>0@Ga,0*1E
!AIVDM,1,1,,A,4020tbAumg90`Pt3BfO4gjW000S:,0*2A
$GPRMC,090040.000,A,5420.3725,N,01330.5419,E,3.71,144.25,300613,,,A*6F
!AIVDM,1,1,,A,139fvv0P00Puk4tO63fh0?wB2@H>,0*6F
!AIVDM,1,1,,A,339L11PPBePvqUbNwp>6:DuD00`Q,0*2B
$GPRMC,090041.000,A,5420.3716,N,01330.5429,E,4.00,145.67,300613,,,A*6B
$GPRMC,090042.000,A,5420.3707,N,01330.5440,E,3.75,143.39,300613,,,A*6F
!AIVDM,1,1,,A,139FFT000>PvJP<O:?;3h5MD0@IU,0*3D
!AIVDM,1,1,,A,4020tliumg90cPw=A8NuR5700L00,0*00
$GPRMC,090043.000,A,5420.3699,N,01330.5450,E,3.63,143.45,300613,,,A*65
!AIVDM,1,1,,A,14aFID002;Q0AJbO3reu3bGHJ8JB,0*32
$GPRMC,090044.000,A,5420.3690,N,01330.5461,E,3.86,143.76,300613,,,A*62
!AIVDM,1,1,,A,339L11PPBdPvqc6NwoH654mL00V@,0*69
$GPRMC,090045.000,A,5420.3682,N,01330.5471,E,3.68,146.70,300613,,,A*62
!AIVDM,1,1,,A,339OIS0PAg0vV<6O<PSQM@vn01:0,0*29
$GPRMC,090046.000,A,5420.3673,N,01330.5480,E,3.48,145.63,300613,,,A*62
!AIVDM,1,1,,A,139L<e0P1s0v@qLO9l;eV?vN088g,0*53
$GPRMC,090047.000,A,5420.3666,N,01330.5490,E,3.84,142.65,300613,,,A*67
$GPRMC,090048.000,A,5420.3657,N,01330.5500,E,3.70,147.37,300613,,,A*6B
!AIVDM,1,1,,A,339L11POjdPvqgDNwndV5lwT0000,0*29
!AIVDM,1,1,,A,13A@M<3P?w<tSF0l4Q@>4?wv0hMN,0*34
$GPRMC,090049.000,A,5420.3648,N,01330.5510,E,3.74,141.19,300613,,,A*6B
!AIVDM,1,1,,A,4020tmAumg90jPw=A8NuR5700L00,0*20
$GPRMC,090050.000,A,5420.3640,N,01330.5520,E,3.51,149.51,300613,,,A*6B
!AIVDM,1,1,,A,139Jv20P250uuu2O4nApwOwT0D0;,0*43
$GPRMC,090051.000,A,5420.3632,N,01330.5530,E,3.86,139.42,300613,,,A*61
$GPRMC,090052.000,A,5420.3624,N,01330.5539,E,3.37,155.92,300613,,,A*61
!AIVDM,1,1,,A,B39iHVP0=h?insWiiHEHkwrUkP06,0*73
!AIVDM,1,1,,A,339L11PPBdPvqkNNwn1F5Dkd00TQ,0*5C
$GPRMC,090053.000,A,5420.3616,N,01330.5548,E,3.90,137.47,300613,,,A*66
!AIVDM,1,1,,A,339OIS0PAg0vVCDO<QGiD@q60000,0*54
!AIVDM,1,1,,A,19t6hrhP000v<0rO;=t@0?wb0<0;,0*16
!AIVDM,1,1,,A,13alul001OPvge4O2Ou8SFqB00S6,0*62
$GPRMC,090054.000,A,5420.3608,N,01330.5559,E,3.57,143.33,300613,,,A*65
!AIVDM,1,1,,A,13b6G6001K0vF;pOAu45UlIh0D1<,0*2B
$GPRMC,090055.000,A,5420.3600,N,01330.5570,E,3.81,139.22,300613,,,A*61
!AIVDM,1,1,,A,14aFID002:Q0A?jO3tEe2rGhJ580,0*44
!AIVDM,1,1,,A,14``mC000B10T0VO94nB6blv0HQP,0*15
$GPRMC,090056.000,A,5420.3591,N,01330.5581,E,3.57,144.71,300613,,,A*60
!AIVDM,1,1,,A,339L11PPBdPvqo8NwmR604ml00Th,0*7C
$GPRMC,090057.000,A,5420.3583,N,01330.5591,E,3.77,141.40,300613,,,A*66
!AIVDM,1,1,,A,B39Tj:00B0?aN9Wk9>pPswu5kP06,0*53
$GPRMC,090058.000,A,5420.3575,N,01330.5602,E,3.61,143.79,300613,,,A*66
!AIVDM,1,1,,A,339cFD50000vN7HO<Gtb1UJ00DS:,0*2D
!AIVDM,1,1,,A,139LE40P010vrW>O6BPW?wv00@Rp,0*7C
!AIVDM,1,1,,A,13aDBj001BPtpd<O2C>lNkGJQ`S5,0*45
$GPRMC,090059.000,A,5420.3567,N,01330.5612,E,3.75,140.61,300613,,,A*6A
!AIVDM,1,1,,A,4020tbAumg910Pt3BfO4gjW00L00,0*6E
$GPRMC,090100.000,A,5420.3559,N,01330.5623,E,3.73,143.88,300613,,,A*6A
!AIVDM,1,1,,A,139KcP0000PwbMRO2H:00CEn0584,0*51
!AIVDM,1,1,,A,139fvv0P00Puk4lO63gh0?v220Sj,0*38
!AIVDM,1,1,,A,339L11POjdPvqsjNwloV1lr40000,0*7B
$GPRMC,090101.000,A,5420.3551,N,01330.5633,E,3.68,143.49,300613,,,A*65
!AIVDM,1,1,,A,139FFT000=PvJV@O:?:l2UN40584,0*36
!AIVDM,1,1,,A,339Ma0UP010w5l8NsWAFqwv40000,0*08
$GPRMC,090102.000,A,5420.3543,N,01330.5644,E,3.58,142.28,300613,,,A*60
!AIVDM,1,1,,A,139Jv20P1w0uuanO4mE9>wv4082?,0*6E
$GPRMC,090103.000,A,5420.3535,N,01330.5654,E,3.91,143.21,300613,,,A*6C
$GPRMC,090104.000,A,5420.3526,N,01330.5665,E,3.81,141.47,300613,,,A*68
!AIVDM,1,1,,A,339L11PPBdPvqwrNwl<62Tf<00`Q,0*75
$GPRMC,090105.000,A,5420.3518,N,01330.5676,E,3.73,144.89,300613,,,A*6C
!AIVDM,1,1,,A,339OIS001g0vVMdO<Rfi6PkP00wP,0*71
$GPRMC,090106.000,A,5420.3510,N,01330.5686,E,3.88,141.51,300613,,,A*6C
!AIVDM,1,1,,A,139L<e0P1s0v@itO9nheSgw608DV,0*4B
!AIVDM,1,1,,A,33tqbl002iPvB2dOD=MV84r:00V1,0*4A
$GPRMC,090107.000,A,5420.3501,N,01330.5697,E,3.74,143.40,300613,,,A*6C
!AIVDM,1,1,,A,14aFID002:Q0A4vO3utu2bF@J854,0*4E
$GPRMC,090108.000,A,5420.3493,N,01330.5708,E,3.81,141.98,300613,,,A*63
!AIVDM,1,1,,A,339L11PPBdPvr54NwkRmrTjD00`0,0*15
!AIVDM,1,1,,A,13A@M<3P?w<tSF0l4Q@>4?wv0U3@,0*79
$GPRMC,090109.000,A,5420.3485,N,01330.5719,E,3.87,141.04,300613,,,A*66
!AIVDM,1,1,,A,4020tmAumg91:Pw=A8NuR5700H69,0*7A
$GPRMC,090110.000,A,5420.3476,N,01330.5730,E,3.65,143.73,300613,,,A*67
!AIVDM,1,1,,A,33tqbl002iPvB6rOD<hV7TpB00U0,0*6B
$GPRMC,090111.000,A,5420.3468,N,01330.5740,E,3.89,142.73,300613,,,A*6D
$GPRMC,090112.000,A,5420.3460,N,01330.5752,E,3.89,139.61,300613,,,A*6A
!AIVDM,1,1,,A,13@nfq30090vjVLO:IKsm`pJ2<0W,0*7B
!AIVDM,1,1,,A,339L11POjdPvr:vNwjfEuDpL0000,0*27
$GPRMC,090113.000,A,5420.3451,N,01330.5763,E,3.82,144.48,300613,,,A*61
!AIVDM,1,1,,A,19t6hrhP000v<0rO;=t@0?vJ0@8L,0*3C
!AIVDM,1,1,,A,339J<<?PAL0vct`O=GKo25bN010Q,0*5C
!AIVDM,1,1,,A,13b6G6001K0vFLVOAsOERDHP0<1<,0*19
!AIVDM,1,1,,A,14``mC000A10T4nO952R6rmT0<11,0*21
$GPRMC,090114.000,A,5420.3442,N,01330.5774,E,3.89,141.69,300613,,,A*6F
!AIVDM,1,1,,A,13alul001PPvgKBO2NDpSFp20<0o,0*1A
!AIVDM,1,1,,A,139Jv20P290uuEVO4lMqKgvL0@9P,0*7F
$GPRMC,090115.000,A,5420.3434,N,01330.5784,E,3.58,143.88,300613,,,A*61
$GPRMC,090116.000,A,5420.3426,N,01330.5795,E,3.81,139.15,300613,,,A*6C
$GPRMC,090117.000,A,5420.3418,N,01330.5806,E,3.59,139.76,300613,,,A*65
!AIVDM,1,1,,A,339L11P02cPvr?LNwj45vlnT00R1,0*54
!AIVDM,1,1,,A,14aKQL001P0vKPPO@m8<F9rT0U84,0*2E
!AIVDM,1,1,,A,13aDBj001BPtq28O2BOTN3F:Q`;:,0*10
!AIVDM,1,1,,A,139LE40P020vrW:O6BPG6wvV0<0b,0*08
$GPRMC,090118.000,A,5420.3410,N,01330.5817,E,3.70,142.03,300613,,,A*67
!AIVDM,1,1,,A,33eUT@5000PuT8LNuBF:j2PV0000,0*59
!AIVDM,1,1,,A,339OIS0Oih0vVVfO<T113@n0012A,0*6C
$GPRMC,090119.000,A,5420.3402,N,01330.5828,E,3.69,140.68,300613,,,A*6E
!AIVDM,1,1,,A,14aFID002:Q0@s>O3wLM3rFVJ0SM,0*52
!AIVDM,1,1,,A,4020tbAumg91DPt3BfO4gjW00L00,0*1A
!AIVDM,1,1,,A,139KcP0000PwbMTO2H9h0CDV00Rg,0*09
$GPRMC,090120.000,A,5420.3395,N,01330.5838,E,3.53,141.51,300613,,,A*6E
!AIVDM,1,1,,A,139fvv0P00Puk4rO63gh0?vb2<0E,0*36
!AIVDM,1,1,,A,339L11PPBdPvrCvNwiIEwDhd00T@,0*63
$GPRMC,090121.000,A,5420.3387,N,01330.5849,E,3.55,142.04,300613,,,A*6F
$GPRMC,090122.000,A,5420.3379,N,01330.5859,E,3.73,141.10,300613,,,A*6E
!AIVDM,1,1,,A,139FFT000<PvJa:O:?:l6ENf08=d,0*64
!AIVDM,1,1,,A,4020tliumg91GPw=A8NuR5700H=u,0*69
$GPRMC,090123.000,A,5420.3371,N,01330.5870,E,3.53,142.98,300613,,,A*6D
$GPRMC,090124.000,A,5420.3363,N,01330.5880,E,3.71,140.29,300613,,,A*6E
!AIVDM,1,1,,A,339L11PPBdPvrGfNwhrEsTjl0000,0*47
$GPRMC,090125.000,A,5420.3355,N,01330.5891,E,3.80,143.58,300613,,,A*61
$GPRMC,090126.000,A,5420.3347,N,01330.5902,E,3.68,142.38,300613,,,A*6B
!AIVDM,1,1,,A,139Jv20P240uu1LO4kW9=Ovl0@@S,0*4D
$GPRMC,090127.000,A,5420.3339,N,01330.5912,E,3.77,141.01,300613,,,A*65
$GPRMC,090128.000,A,5420.3330,N,01330.5923,E,3.75,145.84,300613,,,A*6A
!AIVDM,1,1,,A,13A@M<3P?w<tSF0l4Q@>4?wv0U3D,0*7D
!AIVDM,1,1,,A,139L11POjdPvrMfNwh5mtlpt08AV,0*35
$GPRMC,090129.000,A,5420.3321,N,01330.5933,E,3.93,142.38,300613,,,A*62
!AIVDM,1,1,,A,4020tmAumg91NPw=A8NuR5700HAo,0*2F
$GPRMC,090130.000,A,5420.3313,N,01330.5945,E,3.80,142.07,300613,,,A*64
!AIVDM,1,1,,A,13tqbl002jPvBL4OD9?F74pr00SO,0*3D
$GPRMC,090131.000,A,5420.3305,N,01330.5956,E,3.81,141.69,300613,,,A*6A
!AIVDM,1,1,,A,14`9?l00160vDf8ODtu<V9ft00Ru,0*1E
!AIVDM,1,1,,A,14aFID002;Q0@gNO41==3:G0J<0n,0*14
!AIVDM,1,1,,A,139L7KP0000saw<O9LhF4IK208CM,0*32
$GPRMC,090132.000,A,5420.3296,N,01330.5967,E,3.79,139.91,300613,,,A*6F
!AIVDM,1,1,,A,19t6hrhP000v<0rO;=t@0?w000S>,0*2E
$GPRMC,090133.000,A,5420.3288,N,01330.5978,E,3.73,146.80,300613,,,A*6D
!AIVDM,1,1,,A,13alul001OPvg9PO2Le8T6nb00Sk,0*5C
$GPRMC,090134.000,A,5420.3280,N,01330.5989,E,3.90,136.73,300613,,,A*6A
!AIVDM,1,1,,A,14``mC000A10T9HO95B26:lF0L11,0*31
$GPRMC,090135.000,A,5420.3271,N,01330.6000,E,3.68,147.07,300613,,,A*6C
!AIVDM,1,1,,A,13b6G6001J0vFfHOAqomQTI:0584,0*56
$GPRMC,090136.000,A,5420.3263,N,01330.6010,E,3.88,141.72,300613,,,A*67
!AIVDM,1,1,,A,14aKQL001Q0vK=hO@nd<F9s80pFI,0*6E
$GPRMC,090137.000,A,5420.3255,N,01330.6021,E,3.79,143.88,300613,,,A*68
!AIVDM,1,1,,A,13aDBj001CPtqG>O2AjlNkFhQUST,0*45
$GPRMC,090138.000,A,5420.3247,N,01330.6032,E,3.60,140.94,300613,,,A*60
!AIVDM,1,1,,A,139LE40P020vrW8O6BPGOww@00S2,0*5B
!AIVDM,1,1,,A,139KcP0000PwbMVO2H9h0CE<0L0Q,0*48
!AIVDM,1,1,,A,139OIS001h0vVoFO<VBA5@nb0<0d,0*2F
$GPRMC,090139.000,A,5420.3239,N,01330.6043,E,3.94,140.27,300613,,,A*6D
!AIVDM,1,1,,A,139Jv20P230utdhO4jaI;gw>0<0:,0*65
$GPRMC,090140.000,A,5420.3230,N,01330.6053,E,3.50,144.70,300613,,,A*65
!AIVDM,1,1,,A,139fvv0P00Puk56O63hh0?wB2<0E,0*5D
!AIVDM,1,1,,A,139L11P02dPvranNwf?UwlkD00SO,0*21
$GPRMC,090141.000,A,5420.3222,N,01330.6064,E,3.89,141.74,300613,,,A*66
$GPRMC,090142.000,A,5420.3214,N,01330.6075,E,3.63,141.86,300613,,,A*69
!AIVDM,1,1,,A,13tqbl002jPvB`vOD78F64oB00SV,0*6D
!AIVDM,1,1,,A,139FFT000=PvJdDO:?:klmOF0<0S,0*74
!AIVDM,1,1,,A,4020tliumg91cPw=A8NuR5700HIc,0*2F
$GPRMC,090143.000,A,5420.3206,N,01330.6085,E,3.73,144.64,300613,,,A*6C
!AIVDM,1,1,,A,14aFID002;Q0@T`O42me3:GHJ584,0*21
$GPRMC,090144.000,A,5420.3198,N,01330.6096,E,3.59,140.14,300613,,,A*66
$GPRMC,090145.000,A,5420.3189,N,01330.6106,E,3.58,141.78,300613,,,A*65
$GPRMC,090146.000,A,5420.3181,N,01330.6117,E,4.07,143.36,300613,,,A*6B
!AIVDM,1,1,,A,139L<e0P1s0v@UhO9t7=egvN0584,0*2A
$GPRMC,090147.000,A,5420.3173,N,01330.6128,E,3.66,140.29,300613,,,A*66
$GPRMC,090148.000,A,5420.3165,N,01330.6139,E,3.75,141.98,300613,,,A*67
!AIVDM,1,1,,A,13A@M<3P?w<tSF0l4Q@>4?wv0d0E,0*4E
$GPRMC,090149.000,A,5420.3157,N,01330.6150,E,3.63,139.83,300613,,,A*6A
!AIVDM,1,1,,A,4020tmAumg91jPw=A8NuR5700HMU,0*3D
$GPRMC,090150.000,A,5420.3149,N,01330.6160,E,3.65,143.40,300613,,,A*6A
!AIVDM,1,1,,A,139Jv20P250utK2O4ijaAwwT0@NM,0*43
!AIVDM,1,1,,A,33tqbl002iPvBifOD5fV5DoR0000,0*5F
$GPRMC,090151.000,A,5420.3141,N,01330.6171,E,3.78,142.00,300613,,,A*6A
!AIVDM,1,1,,A,B39iHVP0>P?iuL7ihcAIgwqUkP06,0*2C
$GPRMC,090152.000,A,5420.3133,N,01330.6181,E,3.63,145.22,300613,,,A*6E
!AIVDM,1,1,,A,139P8CPP010suQRO55cFfww`08OI,0*60
!AIVDM,1,1,,A,139L11POjcPvrpBNwd5V2lwd00Rj,0*6A
$GPRMC,090153.000,A,5420.3125,N,01330.6192,E,3.80,142.14,300613,,,A*65
!AIVDM,1,1,,A,19t6hrhP000v<0rO;=t@0?wb08P3,0*7A
!AIVDM,1,1,,A,13alul001NPvfq:O2K9pOno@0L0o,0*16
$GPRMC,090154.000,A,5420.3116,N,01330.6202,E,3.72,147.71,300613,,,A*63
!AIVDM,1,1,,A,33tqbl002jPvBo2OD4n66Dod00RQ,0*51
$GPRMC,090155.000,A,5420.3107,N,01330.6212,E,3.75,141.86,300613,,,A*6A
!AIVDM,1,1,,A,14aFID002;Q0@InO44N=3bGhJ0SV,0*3B
!AIVDM,1,1,,A,14``mC000A10T=NO95RB4rm00D11,0*66
$GPRMC,090156.000,A,5420.3099,N,01330.6222,E,3.70,143.86,300613,,,A*6B
$GPRMC,090157.000,A,5420.3090,N,01330.6232,E,3.56,144.30,300613,,,A*6C
!AIVDM,1,1,,A,139OIS001h0vW68O<`AA6@m>00Sl,0*07
$GPRMC,090158.000,A,5420.3082,N,01330.6243,E,3.81,142.06,300613,,,A*6F
!AIVDM,1,1,,A,13aDBj001CPtqfRO2A0TO3GJQUST,0*10
!AIVDM,1,1,,A,33tqbl002jPvBrJOD4DF5Doj00U@,0*75
$GPRMC,090159.000,A,5420.3073,N,01330.6253,E,3.64,143.92,300613,,,A*66
!AIVDM,1,1,,A,4020tbAumg920Pt3BfO4gjW00H0B,0*1B
!AIVDM,1,1,,A,B39SHt0000?WqJ7iVmfQWwP5kP06,0*78
$GPRMC,090200.000,A,5420.3065,N,01330.6263,E,3.77,144.22,300613,,,A*63
!AIVDM,1,1,,A,139KcP0000PwbMVO2H9@0CEn00Rg,0*1A
$GPRMC,090201.000,A,5420.3057,N,01330.6274,E,3.77,141.43,300613,,,A*67
!AIVDM,1,1,,A,139FFT000>PvJgdO:?:kjUN400St,0*51
!AIVDM,1,1,,A,139fvv0P00Puk4nO63g@0?v42D0E,0*2C
$GPRMC,090202.000,A,5420.3049,N,01330.6284,E,3.66,143.26,300613,,,A*65
!AIVDM,1,1,,A,139Jv20P240ut7BO4hraQOv40588,0*68
$GPRMC,090203.000,A,5420.3041,N,01330.6295,E,3.73,142.69,300613,,,A*62
$GPRMC,090204.000,A,5420.3032,N,01330.6305,E,3.81,144.17,300613,,,A*6B
!AIVDM,1,1,,A,139L11P02dPvs4:Nwb?F1ll<00SD,0*04
$GPRMC,090205.000,A,5420.3024,N,01330.6316,E,3.93,141.79,300613,,,A*61
$GPRMC,090206.000,A,5420.3015,N,01330.6327,E,3.74,141.47,300613,,,A*66
!AIVDM,1,1,,A,139L<e0P1s0v@P8O9vfeegw60584,0*0D
!AIVDM,1,1,,A,33tqbl002jPvC32OD2rF5ln:00V1,0*76
$GPRMC,090207.000,A,5420.3007,N,01330.6338,E,3.83,144.29,300613,,,A*6F
!AIVDM,1,1,,A,14aFID002;Q0@?2O466M3bF@J588,0*32
$GPRMC,090208.000,A,5420.2998,N,01330.6349,E,3.83,141.27,300613,,,A*63
!AIVDM,1,1,,A,13A@M<3P?w<tSF0l4Q@>4?wv0PSD,0*18
$GPRMC,090209.000,A,5420.2990,N,01330.6360,E,3.89,142.30,300613,,,A*6E
!AIVDM,1,1,,A,4020tmAumg92:Pw=A8NuR5700D00,0*7A
$GPRMC,090210.000,A,5420.2981,N,01330.6370,E,3.69,143.84,300613,,,A*67
!AIVDM,1,1,,A,33tqbl002jPvC7FOD2=F6DnB00U0,0*18
$GPRMC,090211.000,A,5420.2974,N,01330.6382,E,3.86,134.71,300613,,,A*6A
$GPRMC,090212.000,A,5420.2967,N,01330.6393,E,3.20,141.01,300613,,,A*62
!AIVDM,1,1,,A,13@nfq300:0vjP4O:Ik<DptJ2883,0*3C
!AIVDM,1,1,,A,14`9?l00150vDCTODwEdT9dF0588,0*2F
$GPRMC,090213.000,A,5420.2960,N,01330.6404,E,3.87,130.03,300613,,,A*64
!AIVDM,1,1,,A,19t6hrhP000v<0rO;=t@0?vJ0<0;,0*3F
$GPRMC,090214.000,A,5420.2952,N,01330.6417,E,3.71,138.67,300613,,,A*63
!AIVDM,1,1,,A,13alul001NPvfW<O2IMHPFn2080=,0*1A
!AIVDM,1,1,,A,33tqbl002jPvC;dOD1PF64nJ0000,0*45
!AIVDM,1,1,,A,139Jv20P270ushDO4hUb@OvL0<09,0*78
$GPRMC,090215.000,A,5420.2944,N,01330.6428,E,3.71,136.29,300613,,,A*6D
$GPRMC,090216.000,A,5420.2936,N,01330.6439,E,3.58,142.67,300613,,,A*69
$GPRMC,090217.000,A,5420.2928,N,01330.6449,E,3.75,142.43,300613,,,A*69
!AIVDM,1,1,,A,139L11P02dPvsB>Nw`364lrT0D0`,0*48
!AIVDM,1,1,,A,139LE40P010vrW2O6BQpa?vV08;C,0*04
$GPRMC,090218.000,A,5420.2920,N,01330.6459,E,3.70,142.50,300613,,,A*68
!AIVDM,1,1,,A,139OIS001h0vWEpO<bPQ3hn00HS6,0*3D
!AIVDM,1,1,,A,139KcP0000PwbMRO2H8P0CDT0L0P,0*1D
$GPRMC,090219.000,A,5420.2911,N,01330.6470,E,3.87,142.42,300613,,,A*6B
!AIVDM,1,1,,A,4020tbAumg92DPt3BfO4gjW00H<0,0*11
!AIVDM,1,1,,A,14aFID002;Q0@46O47fM2:F`JH<?,0*6B
$GPRMC,090220.000,A,5420.2903,N,01330.6481,E,3.78,142.35,300613,,,A*6C
!AIVDM,1,1,,A,139fvv0P00Puk4pO63gP0?vb28<b,0*23
$GPRMC,090221.000,A,5420.2895,N,01330.6491,E,3.79,143.76,300613,,,A*65
$GPRMC,090222.000,A,5420.2886,N,01330.6502,E,3.90,140.40,300613,,,A*6E
!AIVDM,1,1,,A,139FFT000>PvJmvO:?:l6ULd0588,0*62
!AIVDM,1,1,,A,4020tliumg92GPw=A8NuR5700D00,0*2E
$GPRMC,090223.000,A,5420.2877,N,01330.6513,E,3.99,142.85,300613,,,A*63
$GPRMC,090224.000,A,5420.2868,N,01330.6524,E,4.07,140.42,300613,,,A*67
$GPRMC,090225.000,A,5420.2859,N,01330.6536,E,4.10,140.93,300613,,,A*6D
!AIVDM,1,1,,A,139L<e0P1r0v@K8O:19eegwd0D0e,0*76
$GPRMC,090226.000,A,5420.2849,N,01330.6547,E,4.04,144.67,300613,,,A*63
!AIVDM,1,1,,A,139Jv20P260usHVO4hTJIwvl0<09,0*73
$GPRMC,090227.000,A,5420.2840,N,01330.6558,E,4.32,142.76,300613,,,A*66
$GPRMC,090228.000,A,5420.2830,N,01330.6570,E,4.21,145.00,300613,,,A*60
!AIVDM,1,1,,A,13A@M<3P?w<tSF0l4Q@>4?wv0PSm,0*31
!AIVDM,1,1,,A,339L11POjdPvsN>NwUw6:U8t00NQ,0*76
$GPRMC,090229.000,A,5420.2821,N,01330.6581,E,4.45,143.99,300613,,,A*6B
!AIVDM,1,1,,A,4020tmAumg92NPw=A8NuR5700D00,0*0E
$GPRMC,090230.000,A,5420.2811,N,01330.6593,E,4.55,145.27,300613,,,A*61
!AIVDM,1,1,,A,13tqbl002jPvCLhOCvc674nr0@Bg,0*53
$GPRMC,090231.000,A,5420.2800,N,01330.6606,E,4.60,143.90,300613,,,A*63
!AIVDM,1,1,,A,14aFID002;Q0?q<O49Fe2JG0J8CH,0*04
!AIVDM,1,1,,A,339L11POjbPvsP`NwUN6>EK200hP,0*0F
$GPRMC,090232.000,A,5420.2791,N,01330.6618,E,4.60,145.40,300613,,,A*63
!AIVDM,1,1,,A,13@nfq300:0vjMpO:Ircfq1228CU,0*20
$GPRMC,090233.000,A,5420.2780,N,01330.6631,E,4.75,143.41,300613,,,A*6A
$GPRMC,090234.000,A,5420.2769,N,01330.6643,E,4.58,144.19,300613,,,A*6A
!AIVDM,1,1,,A,14``mC000A10TDPO95vj1rnD0HDs,0*44
!AIVDM,1,1,,A,13alul001NPvfE<O2GiHQ6nd0<0o,0*53
$GPRMC,090235.000,A,5420.2759,N,01330.6657,E,4.97,143.02,300613,,,A*63
!AIVDM,1,1,,A,339RU@U000PvJqLO<:J`jSi:0000,0*65
$GPRMC,090236.000,A,5420.2748,N,01330.6670,E,4.56,143.67,300613,,,A*6B
$GPRMC,090237.000,A,5420.2738,N,01330.6683,E,4.83,145.55,300613,,,A*6E
!AIVDM,1,1,,A,339W82POi5PvgaHO=HHQ60s:00wh,0*1A
$GPRMC,090238.000,A,5420.2728,N,01330.6696,E,4.59,141.17,300613,,,A*61
!AIVDM,1,1,,A,B39DTv00:P?K5`Wgt4?EWwk5kP06,0*0A
!AIVDM,1,1,,A,139LE40P010vrW2O6BRHMOw@0D0`,0*20
!AIVDM,1,1,,A,139KcP0000PwbMNO2H8@0CE<0HGJ,0*11
!AIVDM,1,1,,A,139OIS001h0vWVJO<dii60pb08;v,0*5A
$GPRMC,090239.000,A,5420.2717,N,01330.6708,E,4.83,143.49,300613,,,A*64
!AIVDM,1,1,,A,139Jv20P2;0urvVO4hR:Vgw>08Ga,0*40
!AIVDM,1,1,,A,4020tbAumg92`Pt3BfO4gjW00HGf,0*18
$GPRMC,090240.000,A,5420.2706,N,01330.6721,E,4.77,141.55,300613,,,A*65
!AIVDM,1,1,,A,139fvv0P00Puk4lO63f@0?wB28H>,0*27
!AIVDM,1,1,,A,339L11POj2PvsRVNwT=6e6;D00VA,0*18
$GPRMC,090241.000,A,5420.2696,N,01330.6735,E,4.74,140.07,300613,,,A*6C
$GPRMC,090242.000,A,5420.2685,N,01330.6749,E,4.87,138.22,300613,,,A*62
!AIVDM,1,1,,A,139FFT000=PvJpvO:?;405MF08IU,0*71
!AIVDM,1,1,,A,4020tliumg92cPw=A8NuR5700D00,0*0A
!AIVDM,1,1,,A,13tqbl002kPvCbhOCtHn5lqD0<0m,0*7A
$GPRMC,090243.000,A,5420.2675,N,01330.6764,E,4.80,139.55,300613,,,A*65
!AIVDM,1,1,,A,14aFID002;Q0?f>O4:vu2:GHJ0S3,0*59
$GPRMC,090244.000,A,5420.2665,N,01330.6779,E,4.91,137.02,300613,,,A*63
$GPRMC,090245.000,A,5420.2655,N,01330.6794,E,4.85,135.49,300613,,,A*6A
!AIVDM,1,1,,A,339L11POibPvsQrNwSmnw6UL00Sh,0*3B
$GPRMC,090246.000,A,5420.2646,N,01330.6810,E,5.00,133.41,300613,,,A*6A
!AIVDM,1,1,,A,139L<e0P1r0v@E<O:3s=h?vN00SP,0*30
!AIVDM,1,1,,A,339fgA5P00Psv2lO51B@0?wNRDG:,0*25
$GPRMC,090247.000,A,5420.2636,N,01330.6827,E,4.76,133.59,300613,,,A*61
$GPRMC,090248.000,A,5420.2627,N,01330.6844,E,5.06,128.70,300613,,,A*6C
!AIVDM,2,1,4,A,54``mC02AvG0?IUOF21DiA861LthhtpLtpN22216E`JD<40Ht?4UDj@H8888,0*5E
!AIVDM,2,2,4,A,88888888880,2*20
!AIVDM,1,1,,A,339L11POiPPvsOjNwSNoNFST0000,0*41
$GPRMC,090249.000,A,5420.2618,N,01330.6862,E,4.68,131.84,300613,,,A*6F
!AIVDM,1,1,,A,33A@M<3P?w<tSF0l4Q@>4?wv0PHk,0*2E
!AIVDM,1,1,,A,4020tmAumg92jPw=A8NuR5700D00,0*2A
$GPRMC,090250.000,A,5420.2609,N,01330.6879,E,4.77,130.30,300613,,,A*6D
!AIVDM,1,1,,A,139Jv20P290ur`JO4hW:POwT0000,0*27
$GPRMC,090251.000,A,5420.2601,N,01330.6896,E,4.85,127.51,300613,,,A*69
!AIVDM,2,1,5,A,53A@M<42BC8tuPP?8008E8hTp00000000000000t02a0N28cb>0000000000,0*0A
!AIVDM,2,2,5,A,00000000000,2*21
$GPRMC,090252.000,A,5420.2594,N,01330.6914,E,4.85,127.79,300613,,,A*64
!AIVDM,1,1,,A,339L11PPARPvsMnNwS;oeVOb00b1,0*45
!AIVDM,1,1,,A,B39iHVP0;h?j2iWigsUWSwrUkP06,0*32
$GPRMC,090253.000,A,5420.2585,N,01330.6932,E,4.52,129.90,300613,,,A*62
!AIVDM,1,1,,A,13alul001MPvf5jO2FFpR6q@0HGN,0*7A
$GPRMC,090254.000,A,5420.2578,N,01330.6949,E,4.82,123.93,300613,,,A*6F
!AIVDM,2,1,6,A,539L11P00000A4dh0010ThuB0mEA@h4p@000000j1@52240003P000000000,0*7F
!AIVDM,2,2,6,A,00000000000,2*22
$GPRMC,090255.000,A,5420.2570,N,01330.6967,E,4.52,127.69,300613,,,A*66
!AIVDM,1,1,,A,14``mC000A10THvO96=21rq00@QP,0*2B
!AIVDM,1,1,,A,14aFID002;Q0?SBO4<W=2JGhJD0k,0*60
$GPRMC,090256.000,A,5420.2563,N,01330.6985,E,4.75,127.95,300613,,,A*6D
$GPRMC,090257.000,A,5420.2555,N,01330.7003,E,4.59,123.78,300613,,,A*66
$GPRMC,090258.000,A,5420.2547,N,01330.7019,E,4.40,134.21,300613,,,A*63
!AIVDM,1,1,,A,139LE40P000vrW6O6BRH1wv008Rp,0*1E
!AIVDM,1,1,,A,13aDBj001CPtri4O2>gTOkGJQPRF,0*1C
$GPRMC,090259.000,A,5420.2539,N,01330.7035,E,4.63,127.18,300613,,,A*6C
!AIVDM,1,1,,A,139KcP0000PwbMHO2H7P0CEn0@0F,0*29
$GPRMC,090300.000,A,5420.2531,N,01330.7052,E,4.56,128.29,300613,,,A*63
!AIVDM,1,1,,A,339L11POiTPvsI6NwRHoqnP40000,0*6C
$GPRMC,090301.000,A,5420.2523,N,01330.7069,E,4.52,129.42,300613,,,A*61
!AIVDM,1,1,,A,H39kFnTTC=D6<Ok4:mqik01P0220,0*72
!AIVDM,1,1,,A,139fvv0P00Puk4hO63g@0?v42@1U,0*3F
$GPRMC,090302.000,A,5420.2516,N,01330.7086,E,4.64,124.80,300613,,,A*63
!AIVDM,1,1,,A,139Jv20P270ur@`O4ho:p?v40000,0*2A
!AIVDM,1,1,,A,139FFT000@PvJt>O:>j3lmJ60<0P,0*1C
$GPRMC,090303.000,A,5420.2508,N,01330.7103,E,4.40,128.46,300613,,,A*61
$GPRMC,090304.000,A,5420.2501,N,01330.7120,E,4.61,125.28,300613,,,A*68
!AIVDM,1,1,,A,339L11P01UPvsFVNwQwGuVP<00T1,0*60
$GPRMC,090305.000,A,5420.2495,N,01330.7138,E,4.47,123.61,300613,,,A*63
$GPRMC,090306.000,A,5420.2488,N,01330.7154,E,4.26,128.84,300613,,,A*61
!AIVDM,1,1,,A,139L<e0P1r0v@?TO:6U=egw600S4,0*49
$GPRMC,090307.000,A,5420.2481,N,01330.7171,E,4.46,124.56,300613,,,A*6B
!AIVDM,1,1,,A,14aFID002;Q0?HDO4>?M2bF@J0SG,0*5D
$GPRMC,090308.000,A,5420.2474,N,01330.7187,E,4.34,125.17,300613,,,A*66
!AIVDM,1,1,,A,339L11POiVPvsCvNwQUH06PD00V0,0*12
!AIVDM,1,1,,A,13A@M<3P?w<tSF0l4Q@>4?wv0t0C,0*58
$GPRMC,090309.000,A,5420.2468,N,01330.7204,E,4.51,127.51,300613,,,A*61
!AIVDM,1,1,,A,4020tmAumg93:Pw=A8NuR5700@69,0*70
$GPRMC,090310.000,A,5420.2461,N,01330.7221,E,4.54,124.04,300613,,,A*61
$GPRMC,090311.000,A,5420.2454,N,01330.7238,E,4.35,129.88,300613,,,A*60
$GPRMC,090312.000,A,5420.2447,N,01330.7255,E,4.53,121.58,300613,,,A*6F
!AIVDM,1,1,,A,339L11PPA`PvsA@NwQ;H1nNL0000,0*60
$GPRMC,090313.000,A,5420.2441,N,01330.7271,E,4.21,128.19,300613,,,A*67
!AIVDM,1,1,,A,13b6G6001K0vH2fOAjBURDJP058<,0*5F
!AIVDM,1,1,,A,14``mC000A10TMPO96J23bqT058<,0*79
$GPRMC,090314.000,A,5420.2434,N,01330.7288,E,4.46,125.73,300613,,,A*64
!AIVDM,1,1,,A,13alul001MPveklO2DepRFn2058@,0*11
!AIVDM,1,1,,A,339Jv20P220uqqPO4iAs@?vL05cA,0*26
$GPRMC,090315.000,A,5420.2427,N,01330.7305,E,4.41,121.91,300613,,,A*6C
$GPRMC,090316.000,A,5420.2420,N,01330.7322,E,4.41,127.79,300613,,,A*6D
$GPRMC,090317.000,A,5420.2413,N,01330.7339,E,4.38,122.63,300613,,,A*66
!AIVDM,1,1,,A,339L11PPA`Pvs><NwPbWwVNT00S1,0*20
!AIVDM,1,1,,A,339W82POi9Pvh8>O=JVj21jT00th,0*60
!AIVDM,1,1,,A,14aKQL001P0vIV`O@vP<F9rR0l0F,0*2C
!AIVDM,1,1,,A,13aDBj001CPts6tO2=v4PSF:QPS4,0*55
!AIVDM,1,1,,A,139LE40P010vrW:O6BQoV?vV058<,0*55
$GPRMC,090318.000,A,5420.2406,N,01330.7356,E,4.47,123.52,300613,,,A*6F
!AIVDM,1,1,,A,139KcP0000PwbMFO2H7h0CBT0H;n,0*09
$GPRMC,090319.000,A,5420.2398,N,01330.7373,E,4.27,124.57,300613,,,A*6D
!AIVDM,1,1,,A,4020tbAumg93DPt3BfO4gjW00D00,0*10
!AIVDM,1,1,,A,14aFID002;Q0?=PO4?p=3bF`JD0m,0*1E
$GPRMC,090320.000,A,5420.2392,N,01330.7390,E,4.50,121.28,300613,,,A*6D
!AIVDM,1,1,,A,139fvv0P00Puk4pO63g@0?vb258<,0*64
!AIVDM,1,1,,A,339L11POiWPvs;dNwP@ownTd00R@,0*05
$GPRMC,090321.000,A,5420.2386,N,01330.7409,E,4.35,117.84,300613,,,A*6E
$GPRMC,090322.000,A,5420.2379,N,01330.7425,E,4.33,122.52,300613,,,A*68
!AIVDM,1,1,,A,139FFT000>PvK2lO:>j3c5Fd00SP,0*11
!AIVDM,1,1,,A,4020tliumg93GPw=A8NuR5700@=u,0*63
$GPRMC,090323.000,A,5420.2372,N,01330.7442,E,4.48,119.81,300613,,,A*69
$GPRMC,090324.000,A,5420.2365,N,01330.7460,E,4.36,119.14,300613,,,A*6D
!AIVDM,1,1,,A,339L11POiWPvs9`NwOv82nTl0000,0*22
$GPRMC,090325.000,A,5420.2360,N,01330.7478,E,4.51,116.63,300613,,,A*6E
!AIVDM,1,1,,A,139L<e0P1r0v@9`O:95=egwd0@On,0*70
$GPRMC,090326.000,A,5420.2355,N,01330.7497,E,4.48,116.15,300613,,,A*63
!AIVDM,1,1,,A,339Jv20P280uqRLO4imKEwvl02GP,0*58
$GPRMC,090327.000,A,5420.2349,N,01330.7515,E,4.37,119.04,300613,,,A*63
$GPRMC,090328.000,A,5420.2344,N,01330.7533,E,4.41,114.06,300613,,,A*6B
!AIVDM,1,1,,A,139L11PPAWPvs64NwONp66Pt00Rr,0*5C
$GPRMC,090329.000,A,5420.2340,N,01330.7552,E,4.42,114.02,300613,,,A*6E
!AIVDM,1,1,,A,4020tmAumg93NPw=A8NuR5700@Ao,0*25
!AIVDM,1,1,,A,13A@M<3P?w<tSF0l4Q@>4?wv0hB:,0*4F
$GPRMC,090330.000,A,5420.2334,N,01330.7569,E,4.33,118.83,300613,,,A*6E
!AIVDM,1,1,,A,139W82POi6PvhDtO=JujWRDv00S8,0*05
$GPRMC,090331.000,A,5420.2330,N,01330.7588,E,4.39,114.17,300613,,,A*6F
!AIVDM,1,1,,A,14aFID002;Q0?2fO4APM3rG0J58<,0*60
!AIVDM,1,1,,A,139L7KP0000sawFO9Lg6DqG200S@,0*66
$GPRMC,090332.000,A,5420.2325,N,01330.7606,E,4.40,116.13,300613,,,A*65
!AIVDM,1,1,,A,13@nfq300;0vjFHO:JK<:912258<,0*7C
$GPRMC,090333.000,A,5420.2319,N,01330.7624,E,4.41,115.20,300613,,,A*69
$GPRMC,090334.000,A,5420.2314,N,01330.7642,E,4.18,118.05,300613,,,A*65
!AIVDM,1,1,,A,14``mC000B10TRHO96bj4JpF0D11,0*44
!AIVDM,1,1,,A,13alul001MPveQvO2C3HQFnd08<K,0*0F
$GPRMC,090335.000,A,5420.2309,N,01330.7661,E,4.46,111.89,300613,,,A*6F
$GPRMC,090336.000,A,5420.2303,N,01330.7679,E,4.50,114.05,300613,,,A*69
$GPRMC,090337.000,A,5420.2298,N,01330.7698,E,4.31,118.35,300613,,,A*6C
$GPRMC,090338.000,A,5420.2292,N,01330.7716,E,4.43,113.41,300613,,,A*63
!AIVDM,1,1,,A,139LE40P010vrW<O6BQWagw@0@G<,0*19
!AIVDM,1,1,,A,B39DTv00:h?K2e7gtdWFowk5kP06,0*53
!AIVDM,1,1,,A,139KcP0000PwbMDO2H7@0CE:0D0P,0*73
!AIVDM,1,1,,A,13aDBj001CPtsMtO2=9DQkHlQt07,0*34
$GPRMC,090339.000,A,5420.2287,N,01330.7734,E,4.45,117.01,300613,,,A*60
!AIVDM,1,1,,A,139Jv20P250uq:lO4jSsPww>0000,0*49
!AIVDM,1,1,,A,4020tbAumg93`Pt3BfO4gjW00D00,0*34
$GPRMC,090340.000,A,5420.2282,N,01330.7754,E,4.44,115.20,300613,,,A*6D
!AIVDM,1,1,,A,339fvv0P00Puk50O63g@0?wB2C=C,0*0A
!AIVDM,1,1,,A,139L11P01`PvrunNwNAH6FSD08Hg,0*11
$GPRMC,090341.000,A,5420.2276,N,01330.7771,E,4.39,120.38,300613,,,A*65
$GPRMC,090342.000,A,5420.2271,N,01330.7790,E,4.58,112.97,300613,,,A*6D
!AIVDM,1,1,,A,139gUVPP1EPsuE:O9?HhE?wF2<0W,0*6F
!AIVDM,1,1,,A,139FFT000>PvK5jO:>jCmEGF058<,0*3F
!AIVDM,1,1,,A,4020tliumg93cPw=A8NuR5700@Ic,0*25
$GPRMC,090343.000,A,5420.2264,N,01330.7808,E,4.55,120.58,300613,,,A*69
!AIVDM,1,1,,A,339Jv20P240uq40O4jlc`gwF03FQ,0*7B
$GPRMC,090344.000,A,5420.2259,N,01330.7827,E,4.50,118.01,300613,,,A*6F
$GPRMC,090345.000,A,5420.2254,N,01330.7846,E,4.54,112.46,300613,,,A*69
$GPRMC,090346.000,A,5420.2248,N,01330.7865,E,4.48,117.88,300613,,,A*6C
!AIVDM,2,1,7,A,53dhB602A5ggTP7;;SP`tE8N0r222222222222169h<3=5g50;k5@SBC`888,0*53
!AIVDM,2,2,7,A,88888888880,2*23
!AIVDM,1,1,,A,139L<e0P1r0v@34O:;l=`gvN0<0e,0*53
$GPRMC,090347.000,A,5420.2244,N,01330.7884,E,4.37,113.93,300613,,,A*68
$GPRMC,090348.000,A,5420.2239,N,01330.7903,E,4.39,115.52,300613,,,A*66
$GPRMC,090349.000,A,5420.2234,N,01330.7922,E,4.53,116.17,300613,,,A*67
!AIVDM,1,1,,A,13A@M<3P?w<tSF0l4Q@>4?wv0U3L,0*75
!AIVDM,1,1,,A,4020tmAumg93jPw=A8NuR5700@MU,0*37
$GPRMC,090350.000,A,5420.2229,N,01330.7941,E,4.47,116.29,300613,,,A*6E
$GPRMC,090351.000,A,5420.2224,N,01330.7960,E,4.40,116.20,300613,,,A*6F
$GPRMC,090352.000,A,5420.2219,N,01330.7978,E,4.43,115.98,300613,,,A*68
!AIVDM,1,1,,A,139L11PPAaPvrn8NwM:H5FIb0<0`,0*71
!AIVDM,1,1,,A,139P8CPP010suQVO55`nqww`00Rn,0*6A
!AIVDM,1,1,,A,B39iHVP09@?j5v7igDUU7wr5kP06,0*51
!AIVDM,1,1,,A,13@nfq300;0vjCnO:JVt493b2HOQ,0*31
$GPRMC,090353.000,A,5420.2214,N,01330.7997,E,4.39,116.15,300613,,,A*6E
!AIVDM,1,1,,A,19t6hrhP000v<0rO;=t@0?wb00Rl,0*2F
!AIVDM,1,1,,A,139Jv20P220upjlO4kRcoOwb0000,0*54
!AIVDM,1,1,,A,13alul001MPveB`O2AW`QVo@0D0o,0*25
$GPRMC,090354.000,A,5420.2209,N,01330.8016,E,4.56,112.60,300613,,,A*65
$GPRMC,090355.000,A,5420.2204,N,01330.8035,E,4.39,115.72,300613,,,A*65
!AIVDM,1,1,,A,14``mC000B10TVnO96p25Jq00<12,0*21
$GPRMC,090356.000,A,5420.2199,N,01330.8053,E,4.39,114.53,300613,,,A*63
$GPRMC,090357.000,A,5420.2195,N,01330.8073,E,4.42,113.49,300613,,,A*6C
!AIVDM,1,1,,A,13aDBj001CPtsibO2<KDSkMHQd07,0*46
$GPRMC,090358.000,A,5420.2189,N,01330.8091,E,4.29,115.10,300613,,,A*65
!AIVDM,1,1,,A,139LE40P010vrW>O6BQ7VOv0058@,0*63
$GPRMC,090359.000,A,5420.2184,N,01330.8109,E,4.31,116.23,300613,,,A*63
!AIVDM,1,1,,A,4020tbAumg940Pt3BfO4gjW00@0B,0*15
!AIVDM,1,1,,A,139KcP0000PwbMDO2H700CEl0<0S,0*2E
!AIVDM,1,1,,A,B39Tj:00D0?b387k;n`HswP5kP06,0*35
$GPRMC,090400.000,A,5420.2179,N,01330.8127,E,4.57,110.48,300613,,,A*6D
$GPRMC,090401.000,A,5420.2174,N,01330.8146,E,4.52,115.55,300613,,,A*6A
!AIVDM,1,1,,A,139fvv0P00Puk54O63fh0?v42<0E,0*26
$GPRMC,090402.000,A,5420.2169,N,01330.8165,E,4.37,115.02,300613,,,A*65
!AIVDM,1,1,,A,4020tliumg943Pw=A8NuR5700<00,0*24
!AIVDM,1,1,,A,139FFT000>PvK8lO:>jD1UH6082E,0*7E
!AIVDM,1,1,,A,33UOw@5000Pv<j`O;=Ne:ah40000,0*7B
$GPRMC,090403.000,A,5420.2164,N,01330.8184,E,4.50,112.59,300613,,,A*6E
$GPRMC,090404.000,A,5420.2159,N,01330.8203,E,4.50,115.11,300613,,,A*60
!AIVDM,1,1,,A,339L11POi`PvrgnNwKpolnD<00SA,0*1D
$GPRMC,090405.000,A,5420.2154,N,01330.8222,E,4.57,116.52,300613,,,A*6C
!AIVDM,1,1,,A,339Jv20P200upL0O4lKKggv<01ni,0*61
$GPRMC,090406.000,A,5420.2149,N,01330.8242,E,4.66,114.75,300613,,,A*60
!AIVDM,1,1,,A,139L<e0P1r0v?v4O:>D=h?w60L0e,0*1D
$GPRMC,090407.000,A,5420.2144,N,01330.8263,E,4.85,112.34,300613,,,A*61
!AIVDM,1,1,,A,14aFID002:Q0>R>O4FHu2rF@J@5A,0*0A
$GPRMC,090408.000,A,5420.2138,N,01330.8283,E,4.82,120.71,300613,,,A*6C
!AIVDM,1,1,,A,339L11POi`PvrefNwKMolnFD00aP,0*73
!AIVDM,1,1,,A,13A@M<3P?w<tSF0l4Q@>4?wv0p5u,0*6F
$GPRMC,090409.000,A,5420.2132,N,01330.8303,E,4.89,115.19,300613,,,A*6D
!AIVDM,1,1,,A,4020tmAumg94:Pw=A8NuR5700<00,0*04
!AIVDM,1,1,,A,339UQMU1@0Pt1C8O4sQP086@0000,0*5B
$GPRMC,090410.000,A,5420.2127,N,01330.8324,E,4.90,114.73,300613,,,A*61
!AIVDM,1,1,,A,139W82POi0Pvhq<O=JRDESlD0<0f,0*4F
$GPRMC,090411.000,A,5420.2121,N,01330.8345,E,5.03,116.41,300613,,,A*69
$GPRMC,090412.000,A,5420.2115,N,01330.8366,E,4.93,116.33,300613,,,A*61
!AIVDM,1,1,,A,139P8CPP010suQfO55`6lOvH087o,0*62
!AIVDM,1,1,,A,13@nfq300<0vjA@O:JjL;a0J20RG,0*11
!AIVDM,1,1,,A,339L11POiaPvrc0NwJsomnHL0000,0*2B
$GPRMC,090413.000,A,5420.2110,N,01330.8387,E,4.95,117.25,300613,,,A*6A
$GPRMC,090414.000,A,5420.2105,N,01330.8409,E,4.95,112.25,300613,,,A*6D
!AIVDM,1,1,,A,13alul001MPve0jO2?tpQ6n200Sp,0*0B
!AIVDM,1,1,,A,139Jv20P260up>0O4lvcb?vL0000,0*29
$GPRMC,090415.000,A,5420.2099,N,01330.8430,E,5.06,116.80,300613,,,A*62
$GPRMC,090416.000,A,5420.2094,N,01330.8451,E,5.22,116.49,300613,,,A*68
$GPRMC,090417.000,A,5420.2088,N,01330.8474,E,5.02,114.43,300613,,,A*69
!AIVDM,1,1,,A,339L11POiaPvr``NwJPWpFJT00Q1,0*2C
!AIVDM,1,1,,A,13aDBj001CPtt7HO2;VDUCL8Qp;4,0*6C
$GPRMC,090418.000,A,5420.2083,N,01330.8495,E,4.98,115.47,300613,,,A*65
!AIVDM,1,1,,A,339Jv20P230up7@O4mBsnwvT01eA,0*0B
!AIVDM,1,1,,A,139KcP0000PwbM@O2H6P0CBV0D0R,0*0F
$GPRMC,090419.000,A,5420.2078,N,01330.8517,E,5.05,115.01,300613,,,A*6C
!AIVDM,1,1,,A,14aFID002;Q0>GNO4H0e3:F`J@<?,0*16
$GPRMC,090420.000,A,5420.2071,N,01330.8538,E,4.90,115.20,300613,,,A*6C
!AIVDM,1,1,,A,139fvv0P00Puk4lO63h1Ngvb20SK,0*39
$GPRMC,090421.000,A,5420.2066,N,01330.8559,E,4.87,116.02,300613,,,A*69
$GPRMC,090422.000,A,5420.2061,N,01330.8580,E,4.98,113.93,300613,,,A*6A
!AIVDM,1,1,,A,4020tliumg94GPw=A8NuR5700<00,0*50
!AIVDM,1,1,,A,139FFT000=PvK>nO:>j405Lf0H>2,0*37
$GPRMC,090423.000,A,5420.2054,N,01330.8601,E,4.89,114.71,300613,,,A*6C
$GPRMC,090424.000,A,5420.2049,N,01330.8622,E,4.82,116.87,300613,,,A*66
$GPRMC,090425.000,A,5420.2045,N,01330.8644,E,5.05,107.58,300613,,,A*67
!AIVDM,2,1,8,A,539Jv2000000@S?OO:11E@9E>22222222222220k0`42140Ht2DhD`2C`3l1,0*0E
!AIVDM,2,2,8,A,DPE2Ck`8888,2*37
!AIVDM,1,1,,A,139L<e0P1q0v?phO:@neegwd0<0e,0*3F
!AIVDM,1,1,,A,4020tbiumg94KPt3BfO4gjW00@?r,0*79
$GPRMC,090426.000,A,5420.2040,N,01330.8665,E,4.72,113.05,300613,,,A*6E
$GPRMC,090427.000,A,5420.2034,N,01330.8685,E,4.83,115.30,300613,,,A*6C
$GPRMC,090428.000,A,5420.2030,N,01330.8707,E,5.09,109.73,300613,,,A*65
!AIVDM,1,1,,A,139L11POibPvrQbNwIEWv6Pt0@AF,0*53
$GPRMC,090429.000,A,5420.2025,N,01330.8729,E,4.95,111.28,300613,,,A*6F
!AIVDM,1,1,,A,4020tmAumg94NPw=A8NuR5700<00,0*70
!AIVDM,1,1,,A,13A@M<3P?w<tSF0l4Q@>4?wv0d0F,0*4D
$GPRMC,090430.000,A,5420.2020,N,01330.8750,E,4.82,114.38,300613,,,A*6E
!AIVDM,1,1,,A,139Jv20P270uolDO4nG<<Ovt0@BQ,0*08
$GPRMC,090431.000,A,5420.2016,N,01330.8771,E,4.88,104.94,300613,,,A*64
!AIVDM,1,1,,A,14aFID002;Q0><VO4I`M2bG0J0Rk,0*4E
$GPRMC,090432.000,A,5420.2012,N,01330.8793,E,4.79,107.17,300613,,,A*69
!AIVDM,1,1,,A,13@nfq300;0vj?<O:JsdDI5220S0,0*79
$GPRMC,090433.000,A,5420.2009,N,01330.8814,E,4.67,110.92,300613,,,A*66
$GPRMC,090434.000,A,5420.2005,N,01330.8835,E,4.82,103.47,300613,,,A*6F
!AIVDM,1,1,,A,14``mC000C10Tg0O97HR4rpF0@Ds,0*10
$GPRMC,090435.000,A,5420.2001,N,01330.8857,E,4.82,103.91,300613,,,A*65
$GPRMC,090436.000,A,5420.1999,N,01330.8878,E,4.64,106.02,300613,,,A*67
$GPRMC,090437.000,A,5420.1996,N,01330.8899,E,4.56,103.40,300613,,,A*64
!AIVDM,2,1,9,A,53@nfq01ah2lua9c:21=@u8E=DpB22222222220l1H>435hd09A4PDliD`3l,0*0F
!AIVDM,2,2,9,A,U8888888880,2*40
$GPRMC,090438.000,A,5420.1993,N,01330.8921,E,4.64,103.62,300613,,,A*6D
!AIVDM,1,1,,A,139LE40P010vrWFO6BN6bww@0<0W,0*6E
!AIVDM,1,1,,A,13aDBj001CPttORO2:e4SCHlQpGN,0*1C
!AIVDM,1,1,,A,139OIS001h0vaFPO<pvi<hrb00Rp,0*5A
$GPRMC,090439.000,A,5420.1991,N,01330.8942,E,4.87,104.32,300613,,,A*64
!AIVDM,1,1,,A,4020tbAumg94`Pt3BfO4gjW00@Gf,0*16
$GPRMC,090440.000,A,5420.1988,N,01330.8965,E,4.94,103.42,300613,,,A*65
!AIVDM,1,1,,A,139fvv0P00Puk4tO63gh0?wB20T0,0*0C
$GPRMC,090441.000,A,5420.1985,N,01330.8988,E,4.89,103.65,300613,,,A*63
$GPRMC,090442.000,A,5420.1982,N,01330.9010,E,4.85,106.92,300613,,,A*6F
!AIVDM,1,1,,A,139FFT000=PvKAfO:>il55QF00Rk,0*6E
!AIVDM,1,1,,A,4020tliumg94cPw=A8NuR5700<00,0*74
$GPRMC,090443.000,A,5420.1980,N,01330.9033,E,5.02,100.96,300613,,,A*61
!AIVDM,1,1,,A,339Jv20P230uoQHO4oc<@gwF01VQ,0*18
!AIVDM,1,1,,A,14aFID002;Q0>1fO4K@e3:GHJ<0h,0*35
$GPRMC,090444.000,A,5420.1977,N,01330.9056,E,5.10,102.31,300613,,,A*61
!AIVDM,1,1,,A,339L11PPAbPvrJPNwGToNEqL00V0,0*2B
$GPRMC,090445.000,A,5420.1974,N,01330.9078,E,4.73,104.57,300613,,,A*6D
$GPRMC,090446.000,A,5420.1971,N,01330.9100,E,4.78,102.53,300613,,,A*6C
!AIVDM,1,1,,A,139L<e0P1r0v?mDO:Cber?vN0895,0*3B
$GPRMC,090447.000,A,5420.1969,N,01330.9123,E,5.06,98.96,300613,,,A*56
$GPRMC,090448.000,A,5420.1966,N,01330.9146,E,5.08,103.86,300613,,,A*69
!AIVDM,1,1,,A,339L11P01bPvrIpNwG7WG5qT0000,0*44
$GPRMC,090449.000,A,5420.1962,N,01330.9168,E,4.92,107.01,300613,,,A*69
!AIVDM,1,1,,A,13A@M<3P?w<tSF0l4Q@>4?wv0PT0,0*6B
!AIVDM,1,1,,A,4020tmAumg94jPw=A8NuR5700<00,0*54
$GPRMC,090450.000,A,5420.1958,N,01330.9190,E,4.86,104.43,300613,,,A*6F
$GPRMC,090451.000,A,5420.1955,N,01330.9212,E,4.93,102.92,300613,,,A*64
$GPRMC,090452.000,A,5420.1951,N,01330.9234,E,4.84,105.28,300613,,,A*67
!AIVDM,1,1,,A,339L11P01cPvrI@NwFbWDUob00gA,0*4C
!AIVDM,1,1,,A,13@nfq300<0vj<dO:K8<L93b2D0W,0*69
$GPRMC,090453.000,A,5420.1948,N,01330.9255,E,4.83,101.93,300613,,,A*6A
!AIVDM,1,1,,A,13alul001OPvdOvO2<lHNnm@0@GN,0*24
$GPRMC,090454.000,A,5420.1945,N,01330.9277,E,4.88,103.11,300613,,,A*63
!AIVDM,1,1,,A,139Jv20P2>0uo?@O4pVcnOwd0<09,0*23
!AIVDM,1,1,,A,H39d@0TU000000046?1000203140,0*79
$GPRMC,090455.000,A,5420.1942,N,01330.9299,E,4.75,103.61,300613,,,A*60
!AIVDM,1,1,,A,14``mC000C10TkVO97aB6:o008QP,0*2E
$GPRMC,090456.000,A,5420.1939,N,01330.9321,E,4.83,101.75,300613,,,A*63
$GPRMC,090457.000,A,5420.1936,N,01330.9344,E,4.84,101.63,300613,,,A*6E
!AIVDM,1,1,,A,339L11PPAcPvrH`NwF5W@5on00S0,0*07
!AIVDM,1,1,,A,13aDBj001CPttkBO29wlPCEHQ`RA,0*41
$GPRMC,090458.000,A,5420.1933,N,01330.9366,E,4.84,105.26,300613,,,A*61
!AIVDM,1,1,,A,139LE40P010vrWFO6BN6ROv000S3,0*1C
!AIVDM,1,1,,A,B39kFnP0FH?fso7gq6DB3wuUoP06,0*4A
$GPRMC,090459.000,A,5420.1930,N,01330.9388,E,4.78,105.62,300613,,,A*60
!AIVDM,1,1,,A,4020tbAumg950Pt3BfO4gjW00<00,0*1A
!AIVDM,1,1,,A,139KcP0000PwbM<O2H5P0CCn080F,0*21
$GPRMC,090500.000,A,5420.1927,N,01330.9410,E,4.95,102.54,300613,,,A*6C
$GPRMC,090501.000,A,5420.1924,N,01330.9433,E,4.90,103.16,300613,,,A*6D
!AIVDM,1,1,,A,139fvv0P00Puk50O63his?v4281U,0*7B
$GPRMC,090502.000,A,5420.1921,N,01330.9455,E,4.78,104.47,300613,,,A*6E
!AIVDM,1,1,,A,139FFT000=PvKDdO:>ilB5R6058D,0*2D
$GPRMC,090503.000,A,5420.1918,N,01330.9477,E,4.85,104.52,300613,,,A*63
$GPRMC,090504.000,A,5420.1915,N,01330.9499,E,4.86,102.02,300613,,,A*69
!AIVDM,1,1,,A,339L11PPAcPvrGjNwEB7=Ej<00bQ,0*1C
$GPRMC,090505.000,A,5420.1913,N,01330.9522,E,4.83,101.90,300613,,,A*62
!AIVDM,1,1,,A,139Jv20P290unt0O4qf<1gv<084A,0*26
$GPRMC,090506.000,A,5420.1909,N,01330.9543,E,4.68,104.59,300613,,,A*68
!AIVDM,1,1,,A,139L<e0P1r0v?j<O:F:em?w60HDP,0*17
$GPRMC,090507.000,A,5420.1908,N,01330.9565,E,4.63,99.65,300613,,,A*5D
!AIVDM,1,1,,A,14aFID002;Q0=cpO4NPu2rF@J<0k,0*34
$GPRMC,090508.000,A,5420.1905,N,01330.9587,E,4.77,99.73,300613,,,A*51
!AIVDM,1,1,,A,13A@M<3P?w<tSF0l4Q@>4?wv0l0F,0*45
$GPRMC,090509.000,A,5420.1904,N,01330.9609,E,4.44,91.67,300613,,,A*59
!AIVDM,1,1,,A,339L11PPAcPvrGLNwDeG:EdD00L0,0*52
$GPRMC,090510.000,A,5420.1902,N,01330.9629,E,4.55,103.37,300613,,,A*6A
$GPRMC,090511.000,A,5420.1900,N,01330.9650,E,4.55,100.50,300613,,,A*65
!AIVDM,1,1,,A,13@nfq300;0vj:lO:K?d?q2F2D0W,0*21
$GPRMC,090512.000,A,5420.1897,N,01330.9671,E,4.47,103.97,300613,,,A*61
!AIVDM,1,1,,A,339L11PPAcPvrGLNwDG76mbJ0000,0*50
$GPRMC,090513.000,A,5420.1895,N,01330.9692,E,4.59,103.89,300613,,,A*6F
$GPRMC,090514.000,A,5420.1892,N,01330.9712,E,4.61,102.77,300613,,,A*6D
!AIVDM,1,1,,A,14``mC000D10TojO97oR7JoT0D12,0*64
$GPRMC,090515.000,A,5420.1889,N,01330.9733,E,4.44,104.76,300613,,,A*65
!AIVDM,1,1,,A,13alul001PPvd=<O2;0pO6l40H0s,0*0E
$GPRMC,090516.000,A,5420.1886,N,01330.9753,E,4.45,103.77,300613,,,A*68
$GPRMC,090517.000,A,5420.1883,N,01330.9773,E,4.52,102.05,300613,,,A*6C
!AIVDM,1,1,,A,139L11POicPvrGTNwCj735dT08:h,0*48
!AIVDM,1,1,,A,13aDBj001CPtu9PO29@TLk@8Ql06,0*57
$GPRMC,090518.000,A,5420.1880,N,01330.9794,E,4.47,105.92,300613,,,A*64
!AIVDM,1,1,,A,13tqbl002iPvFAfOCQ>F6TpR0@;K,0*56
!AIVDM,1,1,,A,139Jv20P250un`VO4rj<3?vT0D09,0*65
!AIVDM,1,1,,A,139KcP0000PwbM:O2H500CDT0@;n,0*21
$GPRMC,090519.000,A,5420.1877,N,01330.9814,E,4.48,103.84,300613,,,A*64
!AIVDM,1,1,,A,139LE40P000vrWLO6BMnE?v`0<0V,0*71
!AIVDM,1,1,,A,4020tbAumg95DPt3BfO4gjW00<00,0*6E
!AIVDM,1,1,,A,14aFID002;Q0=Q2O4P9=3:F`J<0k,0*12
$GPRMC,090520.000,A,5420.1873,N,01330.9835,E,4.49,104.19,300613,,,A*6B
!AIVDM,1,1,,A,139fvv0P00Puk5<O63hP0?vd2D0G,0*32
!AIVDM,2,1,0,A,539RU@P2<S7<@THF220H4U90h5Vk;F222222220l18K4840Ht=P000000000,0*0B
!AIVDM,2,2,0,A,00000000000,2*24
$GPRMC,090521.000,A,5420.1871,N,01330.9855,E,4.45,103.19,300613,,,A*65
$GPRMC,090522.000,A,5420.1868,N,01330.9876,E,4.55,104.20,300613,,,A*63
!AIVDM,1,1,,A,4020tliumg95GPw=A8NuR57008=u,0*1D
!AIVDM,1,1,,A,139FFT000=PvKGfO:>HktETf0D0P,0*77
$GPRMC,090523.000,A,5420.1866,N,01330.9896,E,4.51,100.47,300613,,,A*63
!AIVDM,1,1,,A,H39iHVP@T4ltp@0000000000000,2*79
!AIVDM,1,1,,A,H39iHVTT000000044miqj00p5040,0*4D
$GPRMC,090524.000,A,5420.1863,N,01330.9917,E,4.48,103.06,300613,,,A*67
$GPRMC,090525.000,A,5420.1861,N,01330.9937,E,4.41,103.74,300613,,,A*6A
$GPRMC,090526.000,A,5420.1858,N,01330.9958,E,4.60,102.28,300613,,,A*61
!AIVDM,2,1,1,A,539FFT02=d;<@89D00058dtp400000000000000o1@q775hV0:4m4PC4mCQ0,0*24
!AIVDM,2,2,1,A,00000000000,2*25
$GPRMC,090527.000,A,5420.1855,N,01330.9978,E,4.55,105.47,300613,,,A*67
$GPRMC,090528.000,A,5420.1851,N,01330.9999,E,4.47,104.09,300613,,,A*6B
!AIVDM,1,1,,A,139L11POiaPvrGBNwBRG6mht0<0U,0*57
$GPRMC,090529.000,A,5420.1849,N,01331.0020,E,4.52,100.30,300613,,,A*6A
!AIVDM,1,1,,A,4020tmAumg95NPw=A8NuR57008Ao,0*5B
!AIVDM,1,1,,A,13A@M<3P?w<tSF0l4Q@>4?wv0`B:,0*47
$GPRMC,090530.000,A,5420.1846,N,01331.0041,E,4.53,102.89,300613,,,A*6B
!AIVDM,1,1,,A,139Jv20P260unErO4sqt2gvt0<09,0*34
!AIVDM,1,1,,A,13tqbl002iPvFNdOCO8664nr058D,0*14
$GPRMC,090531.000,A,5420.1843,N,01331.0061,E,4.43,103.67,300613,,,A*6D
!AIVDM,1,1,,A,14aFID002;Q0=F>O4QiM2rG0J<0l,0*37
!AIVDM,1,1,,A,139P8CPP010suQrO55UG<?vv08C@,0*77
!AIVDM,1,1,,A,13@nfq300:0vj8DO:KIcva102<0W,0*2F
$GPRMC,090532.000,A,5420.1840,N,01331.0081,E,4.43,106.76,300613,,,A*66
$GPRMC,090533.000,A,5420.1837,N,01331.0101,E,4.40,103.84,300613,,,A*65
$GPRMC,090534.000,A,5420.1834,N,01331.0121,E,4.54,102.66,300613,,,A*6B
!AIVDM,1,1,,A,14``mC000D10TtbO98727JlD0<13,0*2A
!AIVDM,1,1,,A,13alul001QPvcsnO29EpOnnd00Rc,0*63
$GPRMC,090535.000,A,5420.1831,N,01331.0142,E,4.47,105.29,300613,,,A*64
$GPRMC,090536.000,A,5420.1828,N,01331.0162,E,4.44,104.88,300613,,,A*64
$GPRMC,090537.000,A,5420.1825,N,01331.0182,E,4.45,103.79,300613,,,A*6E
!AIVDM,2,1,2,A,54aFID026SWh?IAKV20M9TJ2222222222222220t2j84D5flN>4mjC`?H54Q,0*38
!AIVDM,2,2,2,A,C3888888880,2*56
$GPRMC,090538.000,A,5420.1822,N,01331.0203,E,4.50,103.84,300613,,,A*6A
!AIVDM,1,1,,A,139LE40P010vrWJO6BNFIww@08G<,0*21
!AIVDM,1,1,,A,139KcP0000PwbM:O2H4h0CE<0<0T,0*5C
!AIVDM,1,1,,A,13aDBj001CPtuRDO28NTJC@lQl06,0*5D
$GPRMC,090539.000,A,5420.1819,N,01331.0223,E,4.50,102.98,300613,,,A*6D
!AIVDM,1,1,,A,33KsoN50000suljO54wpoAoB0DS:,0*5D
!AIVDM,1,1,,A,4020tbAumg95`Pt3BfO4gjW00<00,0*4A
$GPRMC,090540.000,A,5420.1817,N,01331.0244,E,4.58,101.31,300613,,,A*64
!AIVDM,1,1,,A,339L11PPAcPvrFvNwA2G4EeD02kQ,0*70
$GPRMC,090541.000,A,5420.1814,N,01331.0265,E,4.59,102.04,300613,,,A*61
!AIVDM,1,1,,A,139fvv0P00Puk58O63gP0?wD2D0G,0*18
!AIVDM,1,1,,A,139FFT000>PvKJvO:>HStUWD0D0R,0*62
$GPRMC,090542.000,A,5420.1812,N,01331.0286,E,4.41,100.86,300613,,,A*68
!AIVDM,1,1,,A,4020tliumg95cPw=A8NuR57008Ic,0*5B
$GPRMC,090543.000,A,5420.1809,N,01331.0306,E,4.45,99.05,300613,,,A*54
!AIVDM,1,1,,A,139Jv20P260un2BO4u9L5OwF0@J1,0*17
!AIVDM,1,1,,A,14aFID002;Q0=;JO4SIe3:GHJ8J;,0*2C
$GPRMC,090544.000,A,5420.1807,N,01331.0326,E,4.34,104.57,300613,,,A*6B
$GPRMC,090545.000,A,5420.1805,N,01331.0347,E,4.39,98.99,300613,,,A*54
$GPRMC,090546.000,A,5420.1802,N,01331.0368,E,4.79,104.74,300613,,,A*6E
!AIVDM,1,1,,A,139L<e0P1s0v?ePO:KSetgvN058D,0*3C
$GPRMC,090547.000,A,5420.1798,N,01331.0388,E,4.51,107.51,300613,,,A*63
!AIVDM,2,1,3,A,53alul02@MDm09`>220p4`4@F222222222222216:8>4:5g=0>Tm4PC4mCQ8,0*58
!AIVDM,2,2,3,A,88888888880,2*27
$GPRMC,090548.000,A,5420.1794,N,01331.0408,E,4.43,111.24,300613,,,A*69
$GPRMC,090549.000,A,5420.1791,N,01331.0429,E,4.66,104.38,300613,,,A*60
!AIVDM,1,1,,A,4020tmAumg95jPw=A8NuR57008MU,0*49
$GPRMC,090550.000,A,5420.1788,N,01331.0451,E,4.88,102.61,300613,,,A*65
!AIVDM,1,1,,A,13A@M<3P?w<tSF0l4Q@>4?wv0l0F,0*45
$GPRMC,090551.000,A,5420.1784,N,01331.0472,E,4.46,108.74,300613,,,A*65
!AIVDM,2,1,4,A,539fvv400000A4LN001=Dp@EHUB000000000001510H33t0Ht0P000000000,0*0C
!AIVDM,2,2,4,A,00000000000,2*20
$GPRMC,090552.000,A,5420.1781,N,01331.0492,E,4.42,106.30,300613,,,A*67
!AIVDM,1,1,,A,139L11PPAcPvrG`Nw?iFsm?b0000,0*6A
!AIVDM,1,1,,A,B39iHVP0;P?j;OWiet9W3wrUkP06,0*2C
!AIVDM,1,1,,A,13@nfq300:0vj68O:KSd@I5d2@OQ,0*0B
$GPRMC,090553.000,A,5420.1778,N,01331.0514,E,4.79,101.74,300613,,,A*60
!AIVDM,1,1,,A,13alul001QPvcd6O27o8Pno@0<0n,0*19
$GPRMC,090554.000,A,5420.1775,N,01331.0535,E,4.69,104.35,300613,,,A*68
!AIVDM,1,1,,A,139Jv20P270umiNO4v>L??wd08PK,0*06
!AIVDM,1,1,,A,839fvv0j2eMd>MtL80`0M@O53h00,0*69
!AIVDM,1,1,,A,13tqbl002jPvFqjOCJfn54od0D0i,0*65
$GPRMC,090555.000,A,5420.1771,N,01331.0555,E,4.32,110.08,300613,,,A*6E
!AIVDM,1,1,,A,14``mC000C10U1PO98G26Jk0058D,0*2E
!AIVDM,1,1,,A,14aFID002;Q0=0dO4U2=4:GhJ8QS,0*78
$GPRMC,090556.000,A,5420.1768,N,01331.0576,E,4.59,101.49,300613,,,A*6C
$GPRMC,090557.000,A,5420.1766,N,01331.0598,E,4.91,96.80,300613,,,A*5D
!AIVDM,1,1,,A,13aDBj001BPtunTO27o4ICAHQU`4,0*73
$GPRMC,090558.000,A,5420.1762,N,01331.0618,E,4.53,108.02,300613,,,A*6F
!AIVDM,1,1,,A,139LE40P010vrWJO6BOFUwwn0L0U,0*78
$GPRMC,090559.000,A,5420.1760,N,01331.0639,E,4.30,104.66,300613,,,A*64
!AIVDM,1,1,,A,4020tbAumg960Pt3BfO4gjW0080B,0*6F
!AIVDM,1,1,,A,139KcP0000PwbM:O2H4h0CEl058H,0*11
$GPRMC,090600.000,A,5420.1757,N,01331.0660,E,4.63,99.04,300613,,,A*54
!AIVDM,1,1,,A,339L11PPA`PvrKlNw>rnD4f202vA,0*0B
$GPRMC,090601.000,A,5420.1755,N,01331.0681,E,4.64,100.81,300613,,,A*63
!AIVDM,1,1,,A,139fvv0P00Puk50O63gS;wv4258H,0*57
$GPRMC,090602.000,A,5420.1752,N,01331.0701,E,4.20,108.63,300613,,,A*6A
!AIVDM,1,1,,A,4020tliumg963Pw=A8NuR570058H,0*5F
!AIVDM,1,1,,A,139FFT000=PvKQ0O:>HSvmV600R>,0*0F
$GPRMC,090603.000,A,5420.1749,N,01331.0720,E,4.33,104.85,300613,,,A*64
$GPRMC,090604.000,A,5420.1746,N,01331.0741,E,4.82,103.10,300613,,,A*6A
!AIVDM,1,1,,A,139L11P01aPvrO6Nw>R62Dd<0000,0*01
$GPRMC,090605.000,A,5420.1741,N,01331.0762,E,4.53,108.80,300613,,,A*63
!AIVDM,1,1,,A,139Jv20P270umN6O4wFdIOv<058H,0*31
$GPRMC,090606.000,A,5420.1737,N,01331.0781,E,4.45,109.42,300613,,,A*64
$GPRMC,090607.000,A,5420.1734,N,01331.0802,E,4.43,103.05,300613,,,A*6D
!AIVDM,1,1,,A,33tqbl002jPvG6fOCHWV64p<00Qi,0*77
!AIVDM,1,1,,A,14aFID002;Q0<mvO4Vbu3bF@J85A,0*2D
$GPRMC,090608.000,A,5420.1731,N,01331.0822,E,4.58,104.58,300613,,,A*60
!AIVDM,1,1,,A,13A@M<3P?w<tSF0l4Q@>4?wv0h5u,0*77
!AIVDM,1,1,,A,139P8A0P020vnDHNvUK7FOv@085w,0*16
$GPRMC,090609.000,A,5420.1727,N,01331.0842,E,4.54,113.25,300613,,,A*60
!AIVDM,1,1,,A,4020tmAumg96:Pw=A8NuR570058H,0*7F
$GPRMC,090610.000,A,5420.1723,N,01331.0862,E,4.39,109.39,300613,,,A*63
$GPRMC,090611.000,A,5420.1720,N,01331.0881,E,4.35,105.15,300613,,,A*62
!AIVDM,1,1,,A,13@nfq300:0vj42O:KhLJI6H2@7@,0*5C
$GPRMC,090612.000,A,5420.1716,N,01331.0901,E,4.43,106.88,300613,,,A*6B
$GPRMC,090613.000,A,5420.1713,N,01331.0920,E,4.25,108.39,300613,,,A*68
$GPRMC,090614.000,A,5420.1710,N,01331.0939,E,4.29,107.25,300613,,,A*6A
!AIVDM,1,1,,A,14``mC000B10U60O98UB3rkV0@93,0*72
!AIVDM,1,1,,A,33tqbl002jPvG>4OCGGn84pJ00S@,0*59
$GPRMC,090615.000,A,5420.1706,N,01331.0959,E,4.28,105.85,300613,,,A*63
!AIVDM,1,1,,A,13alul001PPvcHPO261HSFn40D0n,0*5B
$GPRMC,090616.000,A,5420.1703,N,01331.0979,E,4.33,103.79,300613,,,A*68
$GPRMC,090617.000,A,5420.1700,N,01331.0998,E,4.19,107.72,300613,,,A*62
!AIVDM,1,1,,A,139L11POiaPvraDNw=@Et4pT0000,0*52
!AIVDM,1,1,,A,13aDBj001BPtv=6O27;4HS@8Qh;4,0*13
$GPRMC,090618.000,A,5420.1697,N,01331.1017,E,4.15,106.86,300613,,,A*6B
!AIVDM,1,1,,A,33tqbl002jPvGBBOCFbV7lrR00bi,0*1A
!AIVDM,1,1,,A,33tqbl002jPvGBBOCFbV7lrR00UP,0*14
!AIVDM,1,1,,A,139KcP0000PwbM8O2H4@0CDT0<0P,0*1B
$GPRMC,090619.000,A,5420.1694,N,01331.1036,E,4.28,104.24,300613,,,A*6E
!AIVDM,1,1,,A,139LE40P0:0vrWLO6BRCL?v`08;q,0*68
!AIVDM,1,1,,A,4020tbAumg96DPt3BfO4gjW008<0,0*65
!AIVDM,1,1,,A,14aFID002;Q0<c<O4`Ce3JF`J8<?,0*11
$GPRMC,090620.000,A,5420.1690,N,01331.1056,E,4.26,103.36,300613,,,A*6C
!AIVDM,1,1,,A,339L11PPAbPvrcJNw<t5vDpd0001,0*6E
!AIVDM,1,1,,A,139fvv0P00Puk52O63h@0?vd2@<s,0*10
$GPRMC,090621.000,A,5420.1687,N,01331.1074,E,4.09,109.34,300613,,,A*6E
$GPRMC,090622.000,A,5420.1684,N,01331.1093,E,4.06,103.85,300613,,,A*68
!AIVDM,1,1,,A,139FFT000?PvKT:O:>Hl6EVf0@>2,0*15
$GPRMC,090623.000,A,5420.1682,N,01331.1112,E,4.25,99.57,300613,,,A*5B
$GPRMC,090624.000,A,5420.1679,N,01331.1131,E,4.18,105.08,300613,,,A*69
!AIVDM,1,1,,A,139g4oPP1SPsubJO7qFm3gvj2H?3,0*21
$GPRMC,090625.000,A,5420.1676,N,01331.1150,E,4.04,106.50,300613,,,A*63
$GPRMC,090626.000,A,5420.1673,N,01331.1168,E,4.00,105.03,300613,,,A*6F
$GPRMC,090627.000,A,5420.1670,N,01331.1186,E,4.03,105.16,300613,,,A*6A
$GPRMC,090628.000,A,5420.1667,N,01331.1205,E,4.16,107.23,300613,,,A*6B
!AIVDM,1,1,,A,139L11PPAbPvrhnNw<7V04lt0000,0*58
$GPRMC,090629.000,A,5420.1663,N,01331.1223,E,4.16,105.61,300613,,,A*6E
!AIVDM,1,1,,A,4020tmAumg96NPw=A8NuR570058H,0*0B
!AIVDM,1,1,,A,13A@M<3P?w<tSF0l4Q@>4?wv0U3`,0*59
$GPRMC,090630.000,A,5420.1659,N,01331.1241,E,4.00,107.66,300613,,,A*69
!AIVDM,1,1,,A,139Jv20P280ulq`O51VKlOvt08BQ,0*2D
!AIVDM,1,1,,A,33tqbl002jPvGOdOCDGF8Tpt00Uh,0*23
$GPRMC,090631.000,A,5420.1656,N,01331.1259,E,3.91,105.82,300613,,,A*69
!AIVDM,1,1,,A,14aFID002;Q0<PJO4atM3JG0J8C1,0*6A
!AIVDM,1,1,,A,339LiU5P00Psb5jO9Leh0I>l0000,0*08
!AIVDM,1,1,,A,13@nfq300:0vj2BO:Kutfa3228CK,0*73
$GPRMC,090632.000,A,5420.1654,N,01331.1278,E,4.15,102.24,300613,,,A*6B
!AIVDM,1,1,,A,139L7KP0000saw:O9LgQ4aO20D0R,0*10
!AIVDM,1,1,,A,19t6hrhP000v<0rO;=t@0?w0058H,0*36
$GPRMC,090633.000,A,5420.1651,N,01331.1297,E,4.16,105.93,300613,,,A*66
$GPRMC,090634.000,A,5420.1648,N,01331.1315,E,4.08,106.24,300613,,,A*62
!AIVDM,1,1,,A,13alul001QPvc7HO24KpTFnb0H;t,0*31
!AIVDM,1,1,,A,14``mC000B10U9vO98mR2JjF08Ds,0*7E
$GPRMC,090635.000,A,5420.1645,N,01331.1334,E,4.00,104.82,300613,,,A*6B
$GPRMC,090636.000,A,5420.1642,N,01331.1352,E,4.01,103.98,300613,,,A*62
$GPRMC,090637.000,A,5420.1638,N,01331.1370,E,4.18,106.71,300613,,,A*64
!AIVDM,1,1,,A,B39DTv00:@?Jq07gvRCA?wk5kP06,0*1B
$GPRMC,090638.000,A,5420.1634,N,01331.1388,E,4.16,108.85,300613,,,A*6B
!AIVDM,1,1,,A,139LE40P0O0vr`LO6C1PS?w@058H,0*52
!AIVDM,1,1,,A,33tqbl002jPvGW0OCC6F8Tq:00Uh,0*56
!AIVDM,1,1,,A,139KcP0000PwbM8O2H4P0CE<08GJ,0*0B
!AIVDM,1,1,,A,13aDBj001BPtvUtO26LlF3<lQhGN,0*57
$GPRMC,090639.000,A,5420.1631,N,01331.1407,E,4.06,104.70,300613,,,A*68
!AIVDM,1,1,,A,4020tbAumg96`Pt3BfO4gjW008Gf,0*6C
$GPRMC,090640.000,A,5420.1628,N,01331.1426,E,4.13,105.76,300613,,,A*6E
!AIVDM,1,1,,A,139L11POiaPvrr<Nw:kV057D0<0T,0*7C
$GPRMC,090641.000,A,5420.1625,N,01331.1445,E,4.17,104.74,300613,,,A*60
!AIVDM,1,1,,A,139fvv0P00Puk5BO63h2?gwD2@I4,0*56
!AIVDM,1,1,,A,139FFT000=PvKWTO:>HStEUD0@I>,0*5D
