1381859505 {"class": "EMPTY", "time": null}                                                                                                                                              
1381859507 {"class": "EMPTY", "time": null}                                                                                                                                              
1381859509 {"class": "EMPTY", "time": null}                                                                                                                                              
1381859511 {"class": "EMPTY", "time": null}                                                                                                                                              
1381859513 {"class": "EMPTY", "time": null}                                                                                                                                              
1381859515 {"class": "EMPTY", "time": null}                                                                                                                                              
1381859517 {"class": "EMPTY", "time": null}                                                                                                                                              
1381859519 {"class": "EMPTY", "time": null}                                                                                                                                              
1381859521 {"class": "EMPTY", "time": null}                                                                                                                                              
1381859525 {"class": "EMPTY", "time": null}                                                                                                                                              
1381859527 {"class": "EMPTY", "time": null}                                                                                                                                              
1381859529 {"class": "EMPTY", "time": null}                                                                                                                                              
1381859531 {"class": "EMPTY", "time": null}                                                                                                                                              
1381859533 {"class": "EMPTY", "time": null}                                                                                                                                              
1381859535 {"track": 140.48, "lon": 12.486176666666667, "tag": "RMC", "mode": 1, "time": "2013-07-31T08:29:13Z", "lat": 54.92642333333333, "speed": 2.5465, "class": "TPV"}              
1381859537 {"track": 137.12, "lon": 12.486283333333333, "tag": "RMC", "mode": 1, "time": "2013-07-31T08:29:17Z", "lat": 54.92636, "speed": 2.5104888888888888, "class": "TPV"}           
1381859539 {"track": 137.48, "lon": 12.486391666666666, "tag": "RMC", "mode": 1, "time": "2013-07-31T08:29:21Z", "lat": 54.926296666666666, "speed": 2.3921666666666668, "class": "TPV"} 
1381859541 {"track": 133.28, "lon": 12.486496666666667, "tag": "RMC", "mode": 1, "time": "2013-07-31T08:29:25Z", "lat": 54.926233333333336, "speed": 2.495055555555555, "class": "TPV"}  
1381859543 {"track": 132.97, "lon": 12.486605, "tag": "RMC", "mode": 1, "time": "2013-07-31T08:29:29Z", "lat": 54.92617166666667, "speed": 2.423033333333333, "class": "TPV"}            
1381859547 {"track": 129.12, "lon": 12.486811666666666, "tag": "RMC", "mode": 1, "time": "2013-07-31T08:29:37Z", "lat": 54.92606, "speed": 2.242977777777778, "class": "TPV"}            
1381859549 {"track": 125.47, "lon": 12.486915, "tag": "RMC", "mode": 1, "time": "2013-07-31T08:29:41Z", "lat": 54.926006666666666, "speed": 2.315, "class": "TPV"}                       
1381859551 {"track": 139.78, "lon": 12.48702, "tag": "RMC", "mode": 1, "time": "2013-07-31T08:29:45Z", "lat": 54.92595166666667, "speed": 2.1812444444444448, "class": "TPV"}            
1381859553 {"track": 130.05, "lon": 12.487125, "tag": "RMC", "mode": 1, "time": "2013-07-31T08:29:49Z", "lat": 54.925891666666665, "speed": 2.3458666666666663, "class": "TPV"}          
1381859555 {"track": 142.29, "lon": 12.487236666666666, "tag": "RMC", "mode": 1, "time": "2013-07-31T08:29:53Z", "lat": 54.92583666666667, "speed": 2.397311111111111, "class": "TPV"}   
1381859557 {"track": 139.28, "lon": 12.487346666666667, "tag": "RMC", "mode": 1, "time": "2013-07-31T08:29:57Z", "lat": 54.925775, "speed": 2.644244444444444, "class": "TPV"}           
1381859559 {"track": 127.84, "lon": 12.487463333333334, "tag": "RMC", "mode": 1, "time": "2013-07-31T08:30:01Z", "lat": 54.925713333333334, "speed": 2.5670777777777776, "class": "TPV"} 
1381859561 {"track": 128.57, "lon": 12.48758, "tag": "RMC", "mode": 1, "time": "2013-07-31T08:30:05Z", "lat": 54.92565166666667, "speed": 2.5825111111111108, "class": "TPV"}            
1381859563 {"track": 124.97, "lon": 12.487698333333334, "tag": "RMC", "mode": 1, "time": "2013-07-31T08:30:09Z", "lat": 54.92559166666667, "speed": 2.5465, "class": "TPV"}              
1381859565 {"track": 136.48, "lon": 12.487811666666667, "tag": "RMC", "mode": 1, "time": "2013-07-31T08:30:13Z", "lat": 54.925531666666664, "speed": 2.520777777777778, "class": "TPV"}  
1381859569 {"track": 135.96, "lon": 12.488041666666666, "tag": "RMC", "mode": 1, "time": "2013-07-31T08:30:21Z", "lat": 54.925398333333334, "speed": 2.5670777777777776, "class": "TPV"} 
1381859571 {"track": 138.18, "lon": 12.48815, "tag": "RMC", "mode": 1, "time": "2013-07-31T08:30:25Z", "lat": 54.925325, "speed": 2.747133333333333, "class": "TPV"}                     
1381859573 {"track": 144.71, "lon": 12.488261666666666, "tag": "RMC", "mode": 1, "time": "2013-07-31T08:30:29Z", "lat": 54.925248333333336, "speed": 2.669966666666667, "class": "TPV"}  
1381859575 {"track": 136.65, "lon": 12.48837, "tag": "RMC", "mode": 1, "time": "2013-07-31T08:30:33Z", "lat": 54.92516833333333, "speed": 2.952911111111111, "class": "TPV"}             
1381859577 {"track": 134.7, "lon": 12.488493333333333, "tag": "RMC", "mode": 1, "time": "2013-07-31T08:30:37Z", "lat": 54.925093333333336, "speed": 2.839733333333333, "class": "TPV"}   
1381859579 {"track": 128.94, "lon": 12.488621666666667, "tag": "RMC", "mode": 1, "time": "2013-07-31T08:30:41Z", "lat": 54.925023333333336, "speed": 2.8294444444444444, "class": "TPV"} 
1381859581 {"track": 127.88, "lon": 12.488756666666667, "tag": "RMC", "mode": 1, "time": "2013-07-31T08:30:45Z", "lat": 54.92496, "speed": 2.7574222222222224, "class": "TPV"}           
1381859583 {"track": 127.16, "lon": 12.48889, "tag": "RMC", "mode": 1, "time": "2013-07-31T08:30:49Z", "lat": 54.9249, "speed": 2.6802555555555556, "class": "TPV"}                      
1381859585 {"track": 129.11, "lon": 12.48902, "tag": "RMC", "mode": 1, "time": "2013-07-31T08:30:53Z", "lat": 54.924841666666666, "speed": 2.716266666666667, "class": "TPV"}            
1381859587 {"track": 130.91, "lon": 12.489145, "tag": "RMC", "mode": 1, "time": "2013-07-31T08:30:57Z", "lat": 54.92478166666667, "speed": 2.6082333333333336, "class": "TPV"}           
1381859592 {"track": 135.04, "lon": 12.489391666666666, "tag": "RMC", "mode": 1, "time": "2013-07-31T08:31:05Z", "lat": 54.924656666666664, "speed": 2.6391, "class": "TPV"}             
1381859594 {"track": 130.75, "lon": 12.489518333333333, "tag": "RMC", "mode": 1, "time": "2013-07-31T08:31:09Z", "lat": 54.924595, "speed": 2.5979444444444444, "class": "TPV"}          
1381859596 {"track": 131.98, "lon": 12.489646666666667, "tag": "RMC", "mode": 1, "time": "2013-07-31T08:31:13Z", "lat": 54.92453666666667, "speed": 2.5979444444444444, "class": "TPV"}  
1381859598 {"track": 133.48, "lon": 12.48977, "tag": "RMC", "mode": 1, "time": "2013-07-31T08:31:17Z", "lat": 54.92447833333333, "speed": 2.459044444444445, "class": "TPV"}             
1381859600 {"track": 130.3, "lon": 12.48989, "tag": "RMC", "mode": 1, "time": "2013-07-31T08:31:21Z", "lat": 54.924416666666666, "speed": 2.5567888888888883, "class": "TPV"}            
1381859602 {"track": 131.1, "lon": 12.490008333333334, "tag": "RMC", "mode": 1, "time": "2013-07-31T08:31:25Z", "lat": 54.92435666666667, "speed": 2.525922222222222, "class": "TPV"}    
1381859604 {"track": 132.88, "lon": 12.490128333333333, "tag": "RMC", "mode": 1, "time": "2013-07-31T08:31:29Z", "lat": 54.92429833333333, "speed": 2.489911111111111, "class": "TPV"}   
1381859606 {"track": 126.89, "lon": 12.490245, "tag": "RMC", "mode": 1, "time": "2013-07-31T08:31:33Z", "lat": 54.92424, "speed": 2.520777777777778, "class": "TPV"}                     
1381859608 {"track": 129.15, "lon": 12.49036, "tag": "RMC", "mode": 1, "time": "2013-07-31T08:31:37Z", "lat": 54.92418166666667, "speed": 2.4281777777777775, "class": "TPV"}            
1381859610 {"track": 133.72, "lon": 12.49047, "tag": "RMC", "mode": 1, "time": "2013-07-31T08:31:41Z", "lat": 54.924123333333334, "speed": 2.4178888888888888, "class": "TPV"}           
1381859614 {"track": 136.35, "lon": 12.49068, "tag": "RMC", "mode": 1, "time": "2013-07-31T08:31:49Z", "lat": 54.92400333333333, "speed": 2.4744777777777776, "class": "TPV"}            
1381859616 {"track": 137.36, "lon": 12.490783333333333, "tag": "RMC", "mode": 1, "time": "2013-07-31T08:31:53Z", "lat": 54.92394, "speed": 2.3510111111111116, "class": "TPV"}           
1381859618 {"track": 142.24, "lon": 12.490886666666666, "tag": "RMC", "mode": 1, "time": "2013-07-31T08:31:57Z", "lat": 54.923875, "speed": 2.5670777777777776, "class": "TPV"}          
1381859620 {"track": 132.2, "lon": 12.49099, "tag": "RMC", "mode": 1, "time": "2013-07-31T08:32:01Z", "lat": 54.923815, "speed": 2.3921666666666668, "class": "TPV"}                     
1381859622 {"track": 140.15, "lon": 12.491095, "tag": "RMC", "mode": 1, "time": "2013-07-31T08:32:05Z", "lat": 54.92375166666667, "speed": 2.4024555555555556, "class": "TPV"}           
1381859624 {"track": 136.6, "lon": 12.4912, "tag": "RMC", "mode": 1, "time": "2013-07-31T08:32:09Z", "lat": 54.92368666666667, "speed": 2.4333222222222224, "class": "TPV"}              
1381859626 {"track": 131.91, "lon": 12.491306666666667, "tag": "RMC", "mode": 1, "time": "2013-07-31T08:32:13Z", "lat": 54.923625, "speed": 2.3510111111111116, "class": "TPV"}          
1381859628 {"track": 133.43, "lon": 12.491411666666666, "tag": "RMC", "mode": 1, "time": "2013-07-31T08:32:17Z", "lat": 54.923566666666666, "speed": 2.3561555555555556, "class": "TPV"} 
1381859630 {"track": 131.11, "lon": 12.491515, "tag": "RMC", "mode": 1, "time": "2013-07-31T08:32:21Z", "lat": 54.92350666666667, "speed": 2.3458666666666663, "class": "TPV"}           
1381859632 {"track": 132.51, "lon": 12.491618333333333, "tag": "RMC", "mode": 1, "time": "2013-07-31T08:32:25Z", "lat": 54.92345, "speed": 2.2841333333333336, "class": "TPV"}           
1381859636 {"track": 136.37, "lon": 12.49183, "tag": "RMC", "mode": 1, "time": "2013-07-31T08:32:33Z", "lat": 54.92332833333333, "speed": 2.4281777777777775, "class": "TPV"}            
1381859638 {"track": 135.58, "lon": 12.491938333333334, "tag": "RMC", "mode": 1, "time": "2013-07-31T08:32:37Z", "lat": 54.92326666666666, "speed": 2.4178888888888888, "class": "TPV"}  
1381859640 {"track": 131.53, "lon": 12.492053333333333, "tag": "RMC", "mode": 1, "time": "2013-07-31T08:32:41Z", "lat": 54.923201666666664, "speed": 2.644244444444444, "class": "TPV"}  
1381859642 {"track": 133.6, "lon": 12.49217, "tag": "RMC", "mode": 1, "time": "2013-07-31T08:32:45Z", "lat": 54.923136666666664, "speed": 2.695688888888889, "class": "TPV"}             
1381859644 {"track": 132.83, "lon": 12.492286666666667, "tag": "RMC", "mode": 1, "time": "2013-07-31T08:32:49Z", "lat": 54.923075, "speed": 2.577366666666667, "class": "TPV"}           
1381859646 {"track": 129.96, "lon": 12.492401666666666, "tag": "RMC", "mode": 1, "time": "2013-07-31T08:32:53Z", "lat": 54.92301166666667, "speed": 2.6133777777777776, "class": "TPV"}  
1381859648 {"track": 132.83, "lon": 12.492515, "tag": "RMC", "mode": 1, "time": "2013-07-31T08:32:57Z", "lat": 54.922945, "speed": 2.495055555555555, "class": "TPV"}                    
1381859650 {"track": 135.29, "lon": 12.492621666666667, "tag": "RMC", "mode": 1, "time": "2013-07-31T08:33:01Z", "lat": 54.92288, "speed": 2.5619333333333336, "class": "TPV"}           
1381859652 {"track": 132.4, "lon": 12.492728333333334, "tag": "RMC", "mode": 1, "time": "2013-07-31T08:33:05Z", "lat": 54.92281666666667, "speed": 2.4384666666666663, "class": "TPV"}   
1381859654 {"track": 133.77, "lon": 12.492831666666667, "tag": "RMC", "mode": 1, "time": "2013-07-31T08:33:09Z", "lat": 54.92275166666667, "speed": 2.5825111111111108, "class": "TPV"}  
1381859658 {"track": 128.57, "lon": 12.493043333333333, "tag": "RMC", "mode": 1, "time": "2013-07-31T08:33:17Z", "lat": 54.922621666666664, "speed": 2.4333222222222224, "class": "TPV"} 
1381859660 {"track": 132.08, "lon": 12.493153333333334, "tag": "RMC", "mode": 1, "time": "2013-07-31T08:33:21Z", "lat": 54.92256166666667, "speed": 2.3510111111111116, "class": "TPV"}  
1381859662 {"track": 125.59, "lon": 12.493263333333333, "tag": "RMC", "mode": 1, "time": "2013-07-31T08:33:25Z", "lat": 54.922505, "speed": 2.315, "class": "TPV"}                       
1381859664 {"track": 129.71, "lon": 12.493378333333334, "tag": "RMC", "mode": 1, "time": "2013-07-31T08:33:29Z", "lat": 54.922455, "speed": 2.3458666666666663, "class": "TPV"}          
1381859666 {"track": 125.84, "lon": 12.493493333333333, "tag": "RMC", "mode": 1, "time": "2013-07-31T08:33:33Z", "lat": 54.922405, "speed": 2.237833333333333, "class": "TPV"}           
1381859668 {"track": 136.54, "lon": 12.493601666666667, "tag": "RMC", "mode": 1, "time": "2013-07-31T08:33:37Z", "lat": 54.922355, "speed": 2.2018222222222223, "class": "TPV"}          
1381859670 {"track": 139.43, "lon": 12.493705, "tag": "RMC", "mode": 1, "time": "2013-07-31T08:33:41Z", "lat": 54.92229833333333, "speed": 2.2892777777777775, "class": "TPV"}           
1381859672 {"track": 124.02, "lon": 12.493811666666666, "tag": "RMC", "mode": 1, "time": "2013-07-31T08:33:45Z", "lat": 54.922246666666666, "speed": 2.258411111111111, "class": "TPV"}  
1381859674 {"track": 129.42, "lon": 12.49389, "tag": "RMC", "mode": 1, "time": "2013-07-31T08:33:48Z", "lat": 54.92221, "speed": 2.2069666666666667, "class": "TPV"}                     
1381859676 {"track": 128.76, "lon": 12.493998333333334, "tag": "RMC", "mode": 1, "time": "2013-07-31T08:33:52Z", "lat": 54.92216333333333, "speed": 2.1349444444444448, "class": "TPV"}  
1381859680 {"track": 132.07, "lon": 12.494211666666667, "tag": "RMC", "mode": 1, "time": "2013-07-31T08:34:00Z", "lat": 54.92207, "speed": 2.335577777777778, "class": "TPV"}            
1381859682 {"track": 120.43, "lon": 12.494345, "tag": "RMC", "mode": 1, "time": "2013-07-31T08:34:05Z", "lat": 54.92201166666667, "speed": 2.2944222222222224, "class": "TPV"}           
1381859684 {"track": 120.85, "lon": 12.494455, "tag": "RMC", "mode": 1, "time": "2013-07-31T08:34:09Z", "lat": 54.921965, "speed": 2.165811111111111, "class": "TPV"}                    
1381859686 {"track": 124.22, "lon": 12.494563333333334, "tag": "RMC", "mode": 1, "time": "2013-07-31T08:34:13Z", "lat": 54.92191833333333, "speed": 2.2224, "class": "TPV"}              
1381859688 {"track": 124.92, "lon": 12.494675, "tag": "RMC", "mode": 1, "time": "2013-07-31T08:34:17Z", "lat": 54.92187, "speed": 2.242977777777778, "class": "TPV"}                     
1381859690 {"track": 116.34, "lon": 12.494788333333334, "tag": "RMC", "mode": 1, "time": "2013-07-31T08:34:21Z", "lat": 54.921825, "speed": 2.3613, "class": "TPV"}                      
1381859692 {"track": 119.05, "lon": 12.494903333333333, "tag": "RMC", "mode": 1, "time": "2013-07-31T08:34:25Z", "lat": 54.92178333333333, "speed": 2.2069666666666667, "class": "TPV"}  
1381859694 {"track": 115.36, "lon": 12.49502, "tag": "RMC", "mode": 1, "time": "2013-07-31T08:34:29Z", "lat": 54.92174333333333, "speed": 2.1246555555555555, "class": "TPV"}            
1381859696 {"track": 125.32, "lon": 12.495133333333333, "tag": "RMC", "mode": 1, "time": "2013-07-31T08:34:33Z", "lat": 54.9217, "speed": 2.2481222222222224, "class": "TPV"}            
1381859698 {"track": 121.63, "lon": 12.49522, "tag": "RMC", "mode": 1, "time": "2013-07-31T08:34:36Z", "lat": 54.921668333333336, "speed": 2.237833333333333, "class": "TPV"}            
1381859702 {"track": 124.13, "lon": 12.495453333333334, "tag": "RMC", "mode": 1, "time": "2013-07-31T08:34:44Z", "lat": 54.92158333333333, "speed": 2.2789888888888887, "class": "TPV"}  
1381859704 {"track": 124.79, "lon": 12.495565, "tag": "RMC", "mode": 1, "time": "2013-07-31T08:34:48Z", "lat": 54.92153833333333, "speed": 2.3098555555555556, "class": "TPV"}           
1381859706 {"track": 122.31, "lon": 12.49571, "tag": "RMC", "mode": 1, "time": "2013-07-31T08:34:53Z", "lat": 54.92148, "speed": 2.3561555555555556, "class": "TPV"}                     
1381859708 {"track": 115.36, "lon": 12.495828333333334, "tag": "RMC", "mode": 1, "time": "2013-07-31T08:34:57Z", "lat": 54.921435, "speed": 2.5053444444444444, "class": "TPV"}          
1381859710 {"track": 119.18, "lon": 12.495946666666667, "tag": "RMC", "mode": 1, "time": "2013-07-31T08:35:01Z", "lat": 54.92139, "speed": 2.2687000000000004, "class": "TPV"}           
1381859712 {"track": 124.04, "lon": 12.496065, "tag": "RMC", "mode": 1, "time": "2013-07-31T08:35:05Z", "lat": 54.921348333333334, "speed": 2.1246555555555555, "class": "TPV"}          
1381859714 {"track": 131.51, "lon": 12.49618, "tag": "RMC", "mode": 1, "time": "2013-07-31T08:35:09Z", "lat": 54.921306666666666, "speed": 2.1349444444444448, "class": "TPV"}           
1381859716 {"track": 127.51, "lon": 12.496301666666668, "tag": "RMC", "mode": 1, "time": "2013-07-31T08:35:13Z", "lat": 54.92126833333333, "speed": 2.140088888888889, "class": "TPV"}   
1381859718 {"track": 122.65, "lon": 12.496415, "tag": "RMC", "mode": 1, "time": "2013-07-31T08:35:17Z", "lat": 54.921225, "speed": 2.2995666666666663, "class": "TPV"}                   
1381859720 {"track": 119.4, "lon": 12.496533333333334, "tag": "RMC", "mode": 1, "time": "2013-07-31T08:35:21Z", "lat": 54.921185, "speed": 2.1349444444444448, "class": "TPV"}           
1381859724 {"track": 116.61, "lon": 12.496773333333334, "tag": "RMC", "mode": 1, "time": "2013-07-31T08:35:29Z", "lat": 54.92111, "speed": 2.2069666666666667, "class": "TPV"}           
1381859726 {"track": 121.87, "lon": 12.496891666666667, "tag": "RMC", "mode": 1, "time": "2013-07-31T08:35:33Z", "lat": 54.92107166666667, "speed": 2.2018222222222223, "class": "TPV"}  
1381859728 {"track": 127.37, "lon": 12.49701, "tag": "RMC", "mode": 1, "time": "2013-07-31T08:35:37Z", "lat": 54.921033333333334, "speed": 2.242977777777778, "class": "TPV"}            
1381859730 {"track": 123.01, "lon": 12.497128333333333, "tag": "RMC", "mode": 1, "time": "2013-07-31T08:35:41Z", "lat": 54.92099, "speed": 2.3613, "class": "TPV"}                       
1381859732 {"track": 123.2, "lon": 12.497251666666667, "tag": "RMC", "mode": 1, "time": "2013-07-31T08:35:45Z", "lat": 54.920945, "speed": 2.4075999999999995, "class": "TPV"}           
1381859735 {"track": 121.12, "lon": 12.497373333333334, "tag": "RMC", "mode": 1, "time": "2013-07-31T08:35:49Z", "lat": 54.9209, "speed": 2.3664444444444444, "class": "TPV"}            
1381859737 {"track": 121.83, "lon": 12.497496666666667, "tag": "RMC", "mode": 1, "time": "2013-07-31T08:35:53Z", "lat": 54.920856666666666, "speed": 2.2738444444444443, "class": "TPV"} 
1381859739 {"track": 118.33, "lon": 12.497623333333333, "tag": "RMC", "mode": 1, "time": "2013-07-31T08:35:57Z", "lat": 54.92081833333334, "speed": 2.3613, "class": "TPV"}              
1381859741 {"track": 120.65, "lon": 12.49775, "tag": "RMC", "mode": 1, "time": "2013-07-31T08:36:01Z", "lat": 54.92077666666667, "speed": 2.443611111111111, "class": "TPV"}             
1381859743 {"track": 125.48, "lon": 12.497878333333333, "tag": "RMC", "mode": 1, "time": "2013-07-31T08:36:05Z", "lat": 54.92072833333334, "speed": 2.4281777777777775, "class": "TPV"}  
1381859747 {"track": 125.5, "lon": 12.498135, "tag": "RMC", "mode": 1, "time": "2013-07-31T08:36:13Z", "lat": 54.92063666666667, "speed": 2.6339555555555556, "class": "TPV"}            
1381859749 {"track": 127.17, "lon": 12.498265, "tag": "RMC", "mode": 1, "time": "2013-07-31T08:36:17Z", "lat": 54.920588333333335, "speed": 2.376733333333333, "class": "TPV"}           
1381859751 {"track": 123.52, "lon": 12.498395, "tag": "RMC", "mode": 1, "time": "2013-07-31T08:36:21Z", "lat": 54.920545, "speed": 2.387022222222222, "class": "TPV"}                    
1381859753 {"track": 114.18, "lon": 12.49853, "tag": "RMC", "mode": 1, "time": "2013-07-31T08:36:25Z", "lat": 54.92050666666667, "speed": 2.1503777777777775, "class": "TPV"}            
1381859755 {"track": 118.76, "lon": 12.498665, "tag": "RMC", "mode": 1, "time": "2013-07-31T08:36:29Z", "lat": 54.920471666666664, "speed": 2.2789888888888887, "class": "TPV"}          
1381859757 {"track": 119.83, "lon": 12.498803333333333, "tag": "RMC", "mode": 1, "time": "2013-07-31T08:36:33Z", "lat": 54.92043666666667, "speed": 2.2687000000000004, "class": "TPV"}  
1381859759 {"track": 119.24, "lon": 12.498944999999999, "tag": "RMC", "mode": 1, "time": "2013-07-31T08:36:37Z", "lat": 54.92040166666666, "speed": 2.263555555555556, "class": "TPV"}   
1381859761 {"track": 114.68, "lon": 12.499085000000001, "tag": "RMC", "mode": 1, "time": "2013-07-31T08:36:41Z", "lat": 54.92037, "speed": 2.2995666666666663, "class": "TPV"}           
1381859763 {"track": 110.39, "lon": 12.499188333333333, "tag": "RMC", "mode": 1, "time": "2013-07-31T08:36:44Z", "lat": 54.92035, "speed": 2.3664444444444444, "class": "TPV"}           
1381859765 {"track": 100.99, "lon": 12.499353333333334, "tag": "RMC", "mode": 1, "time": "2013-07-31T08:36:49Z", "lat": 54.920323333333336, "speed": 2.1246555555555555, "class": "TPV"} 
1381859769 {"track": 105.88, "lon": 12.499613333333333, "tag": "RMC", "mode": 1, "time": "2013-07-31T08:36:57Z", "lat": 54.920278333333336, "speed": 2.212111111111111, "class": "TPV"}  
1381859771 {"track": 106.11, "lon": 12.499746666666667, "tag": "RMC", "mode": 1, "time": "2013-07-31T08:37:01Z", "lat": 54.920253333333335, "speed": 2.381877777777778, "class": "TPV"}  
1381859773 {"track": 105.91, "lon": 12.499883333333333, "tag": "RMC", "mode": 1, "time": "2013-07-31T08:37:05Z", "lat": 54.92022333333333, "speed": 2.443611111111111, "class": "TPV"}   
1381859775 {"track": 103.06, "lon": 12.500018333333333, "tag": "RMC", "mode": 1, "time": "2013-07-31T08:37:09Z", "lat": 54.92019666666667, "speed": 2.217255555555555, "class": "TPV"}   
1381859777 {"track": 103.44, "lon": 12.50014, "tag": "RMC", "mode": 1, "time": "2013-07-31T08:37:13Z", "lat": 54.920175, "speed": 2.0372, "class": "TPV"}                                
1381859780 {"track": 106.67, "lon": 12.500253333333333, "tag": "RMC", "mode": 1, "time": "2013-07-31T08:37:17Z", "lat": 54.920155, "speed": 1.888011111111111, "class": "TPV"}           
1381859782 {"track": 124.4, "lon": 12.500356666666667, "tag": "RMC", "mode": 1, "time": "2013-07-31T08:37:21Z", "lat": 54.92012666666667, "speed": 1.7233888888888889, "class": "TPV"}   
1381859784 {"track": 126.2, "lon": 12.500458333333333, "tag": "RMC", "mode": 1, "time": "2013-07-31T08:37:25Z", "lat": 54.92008833333333, "speed": 1.9909, "class": "TPV"}               
1381859786 {"track": 122.23, "lon": 12.500565, "tag": "RMC", "mode": 1, "time": "2013-07-31T08:37:29Z", "lat": 54.920046666666664, "speed": 2.109222222222222, "class": "TPV"}           
1381859788 {"track": 127.27, "lon": 12.500671666666667, "tag": "RMC", "mode": 1, "time": "2013-07-31T08:37:33Z", "lat": 54.919995, "speed": 2.2789888888888887, "class": "TPV"}          
1381859792 {"track": 142.98, "lon": 12.50087, "tag": "RMC", "mode": 1, "time": "2013-07-31T08:37:41Z", "lat": 54.91988166666667, "speed": 2.371588888888889, "class": "TPV"}             
1381859794 {"track": 134.3, "lon": 12.500971666666667, "tag": "RMC", "mode": 1, "time": "2013-07-31T08:37:45Z", "lat": 54.91982333333333, "speed": 2.4075999999999995, "class": "TPV"}   
1381859796 {"track": 124.76, "lon": 12.501076666666666, "tag": "RMC", "mode": 1, "time": "2013-07-31T08:37:49Z", "lat": 54.91976666666667, "speed": 2.5619333333333336, "class": "TPV"}  
1381859798 {"track": 123.53, "lon": 12.501183333333334, "tag": "RMC", "mode": 1, "time": "2013-07-31T08:37:53Z", "lat": 54.91970666666667, "speed": 2.541355555555556, "class": "TPV"}   
1381859800 {"track": 134.39, "lon": 12.501283333333333, "tag": "RMC", "mode": 1, "time": "2013-07-31T08:37:57Z", "lat": 54.919645, "speed": 2.4178888888888888, "class": "TPV"}          
1381859802 {"track": 137.8, "lon": 12.501385, "tag": "RMC", "mode": 1, "time": "2013-07-31T08:38:01Z", "lat": 54.919583333333335, "speed": 2.3561555555555556, "class": "TPV"}           
1381859804 {"track": 136.98, "lon": 12.501485, "tag": "RMC", "mode": 1, "time": "2013-07-31T08:38:05Z", "lat": 54.919525, "speed": 2.6288111111111117, "class": "TPV"}                   
1381859806 {"track": 133.56, "lon": 12.501591666666666, "tag": "RMC", "mode": 1, "time": "2013-07-31T08:38:09Z", "lat": 54.91945666666667, "speed": 2.5567888888888883, "class": "TPV"}  
1381859808 {"track": 137.36, "lon": 12.501676666666667, "tag": "RMC", "mode": 1, "time": "2013-07-31T08:38:12Z", "lat": 54.91941, "speed": 2.6493888888888892, "class": "TPV"}           
1381859810 {"track": 132.68, "lon": 12.501795, "tag": "RMC", "mode": 1, "time": "2013-07-31T08:38:16Z", "lat": 54.91934666666667, "speed": 2.5979444444444444, "class": "TPV"}           
1381859814 {"track": 118.42, "lon": 12.502045, "tag": "RMC", "mode": 1, "time": "2013-07-31T08:38:24Z", "lat": 54.91923333333333, "speed": 2.5104888888888888, "class": "TPV"}           
1381859816 {"track": 104.87, "lon": 12.502213333333334, "tag": "RMC", "mode": 1, "time": "2013-07-31T08:38:29Z", "lat": 54.919176666666665, "speed": 2.484766666666667, "class": "TPV"}  
1381859818 {"track": 115.57, "lon": 12.502345, "tag": "RMC", "mode": 1, "time": "2013-07-31T08:38:33Z", "lat": 54.91913, "speed": 2.577366666666667, "class": "TPV"}                     
1381859820 {"track": 114.95, "lon": 12.502471666666667, "tag": "RMC", "mode": 1, "time": "2013-07-31T08:38:37Z", "lat": 54.919075, "speed": 2.5362111111111107, "class": "TPV"}          
1381859822 {"track": 122.99, "lon": 12.5026, "tag": "RMC", "mode": 1, "time": "2013-07-31T08:38:41Z", "lat": 54.919021666666666, "speed": 2.587655555555556, "class": "TPV"}             
1381859824 {"track": 119.56, "lon": 12.502731666666667, "tag": "RMC", "mode": 1, "time": "2013-07-31T08:38:45Z", "lat": 54.91897, "speed": 2.4796222222222224, "class": "TPV"}           
1381859826 {"track": 123.7, "lon": 12.502858333333334, "tag": "RMC", "mode": 1, "time": "2013-07-31T08:38:49Z", "lat": 54.918925, "speed": 2.3561555555555556, "class": "TPV"}           
1381859828 {"track": 112.13, "lon": 12.502985, "tag": "RMC", "mode": 1, "time": "2013-07-31T08:38:53Z", "lat": 54.91888333333333, "speed": 2.371588888888889, "class": "TPV"}            
1381859830 {"track": 112.91, "lon": 12.503111666666667, "tag": "RMC", "mode": 1, "time": "2013-07-31T08:38:57Z", "lat": 54.918845, "speed": 2.315, "class": "TPV"}                       
1381859832 {"track": 121.13, "lon": 12.50323, "tag": "RMC", "mode": 1, "time": "2013-07-31T08:39:01Z", "lat": 54.918805, "speed": 2.2789888888888887, "class": "TPV"}                    
1381859836 {"track": 123.45, "lon": 12.503471666666666, "tag": "RMC", "mode": 1, "time": "2013-07-31T08:39:09Z", "lat": 54.918726666666664, "speed": 2.2275444444444443, "class": "TPV"} 
1381859838 {"track": 121.42, "lon": 12.503598333333333, "tag": "RMC", "mode": 1, "time": "2013-07-31T08:39:13Z", "lat": 54.918688333333336, "speed": 2.191533333333333, "class": "TPV"}  
1381859840 {"track": 118.69, "lon": 12.503733333333333, "tag": "RMC", "mode": 1, "time": "2013-07-31T08:39:17Z", "lat": 54.91865, "speed": 2.263555555555556, "class": "TPV"}            
1381859842 {"track": 111.65, "lon": 12.503868333333333, "tag": "RMC", "mode": 1, "time": "2013-07-31T08:39:21Z", "lat": 54.91862166666667, "speed": 2.073211111111111, "class": "TPV"}   
1381859844 {"track": 125.99, "lon": 12.503991666666666, "tag": "RMC", "mode": 1, "time": "2013-07-31T08:39:25Z", "lat": 54.91858833333333, "speed": 2.2532666666666668, "class": "TPV"}  
1381859846 {"track": 123.85, "lon": 12.504116666666667, "tag": "RMC", "mode": 1, "time": "2013-07-31T08:39:29Z", "lat": 54.918551666666666, "speed": 2.237833333333333, "class": "TPV"}  
1381859848 {"track": 112.66, "lon": 12.50425, "tag": "RMC", "mode": 1, "time": "2013-07-31T08:39:33Z", "lat": 54.91852, "speed": 2.1863888888888887, "class": "TPV"}                     
1381859850 {"track": 113.8, "lon": 12.50438, "tag": "RMC", "mode": 1, "time": "2013-07-31T08:39:37Z", "lat": 54.91849, "speed": 2.212111111111111, "class": "TPV"}                       
1381859852 {"track": 98.28, "lon": 12.504506666666666, "tag": "RMC", "mode": 1, "time": "2013-07-31T08:39:41Z", "lat": 54.918465, "speed": 2.0680666666666663, "class": "TPV"}           
1381859854 {"track": 95.24, "lon": 12.50463, "tag": "RMC", "mode": 1, "time": "2013-07-31T08:39:45Z", "lat": 54.918443333333336, "speed": 2.1812444444444448, "class": "TPV"}            
1381859858 {"track": 121.74, "lon": 12.504873333333334, "tag": "RMC", "mode": 1, "time": "2013-07-31T08:39:53Z", "lat": 54.918395, "speed": 2.057777777777778, "class": "TPV"}           
1381859860 {"track": 122.75, "lon": 12.504988333333333, "tag": "RMC", "mode": 1, "time": "2013-07-31T08:39:57Z", "lat": 54.918355, "speed": 2.191533333333333, "class": "TPV"}           
1381859862 {"track": 125.6, "lon": 12.505103333333333, "tag": "RMC", "mode": 1, "time": "2013-07-31T08:40:01Z", "lat": 54.91831666666667, "speed": 2.242977777777778, "class": "TPV"}    
1381859864 {"track": 123.14, "lon": 12.505221666666667, "tag": "RMC", "mode": 1, "time": "2013-07-31T08:40:05Z", "lat": 54.918276666666664, "speed": 2.2841333333333336, "class": "TPV"} 
1381859866 {"track": 130.11, "lon": 12.505338333333333, "tag": "RMC", "mode": 1, "time": "2013-07-31T08:40:09Z", "lat": 54.918236666666665, "speed": 2.3664444444444444, "class": "TPV"} 
1381859868 {"track": 126.11, "lon": 12.505453333333334, "tag": "RMC", "mode": 1, "time": "2013-07-31T08:40:13Z", "lat": 54.91819666666667, "speed": 2.2841333333333336, "class": "TPV"}  
1381859870 {"track": 126.92, "lon": 12.505568333333333, "tag": "RMC", "mode": 1, "time": "2013-07-31T08:40:17Z", "lat": 54.918155, "speed": 2.2481222222222224, "class": "TPV"}          
1381859872 {"track": 120.29, "lon": 12.505681666666666, "tag": "RMC", "mode": 1, "time": "2013-07-31T08:40:21Z", "lat": 54.91811333333333, "speed": 2.2738444444444443, "class": "TPV"}  
1381859874 {"track": 116.77, "lon": 12.505796666666667, "tag": "RMC", "mode": 1, "time": "2013-07-31T08:40:25Z", "lat": 54.91807166666667, "speed": 2.217255555555555, "class": "TPV"}   
1381859876 {"track": 118.41, "lon": 12.505908333333334, "tag": "RMC", "mode": 1, "time": "2013-07-31T08:40:29Z", "lat": 54.918033333333334, "speed": 2.1452333333333335, "class": "TPV"} 
1381859880 {"track": 120.89, "lon": 12.506133333333333, "tag": "RMC", "mode": 1, "time": "2013-07-31T08:40:37Z", "lat": 54.917948333333335, "speed": 2.1503777777777775, "class": "TPV"} 
1381859882 {"track": 121.6, "lon": 12.506248333333334, "tag": "RMC", "mode": 1, "time": "2013-07-31T08:40:41Z", "lat": 54.91790666666667, "speed": 2.140088888888889, "class": "TPV"}    
1381859884 {"track": 125.26, "lon": 12.50637, "tag": "RMC", "mode": 1, "time": "2013-07-31T08:40:45Z", "lat": 54.91786666666667, "speed": 2.5928, "class": "TPV"}                        
1381859886 {"track": 113.94, "lon": 12.506495, "tag": "RMC", "mode": 1, "time": "2013-07-31T08:40:49Z", "lat": 54.91782833333333, "speed": 2.263555555555556, "class": "TPV"}            
1381859888 {"track": 111.19, "lon": 12.506623333333334, "tag": "RMC", "mode": 1, "time": "2013-07-31T08:40:53Z", "lat": 54.917793333333336, "speed": 2.1555222222222223, "class": "TPV"} 
1381859890 {"track": 128.63, "lon": 12.506738333333333, "tag": "RMC", "mode": 1, "time": "2013-07-31T08:40:57Z", "lat": 54.91775333333333, "speed": 2.381877777777778, "class": "TPV"}   
1381859892 {"track": 134.12, "lon": 12.506846666666666, "tag": "RMC", "mode": 1, "time": "2013-07-31T08:41:01Z", "lat": 54.917698333333334, "speed": 2.412744444444445, "class": "TPV"}  
1381859894 {"track": 128.04, "lon": 12.50696, "tag": "RMC", "mode": 1, "time": "2013-07-31T08:41:05Z", "lat": 54.91764166666667, "speed": 2.6493888888888892, "class": "TPV"}            
1381859896 {"track": 123.36, "lon": 12.507076666666666, "tag": "RMC", "mode": 1, "time": "2013-07-31T08:41:09Z", "lat": 54.917588333333335, "speed": 2.423033333333333, "class": "TPV"}  
1381859898 {"track": 123.57, "lon": 12.507196666666667, "tag": "RMC", "mode": 1, "time": "2013-07-31T08:41:13Z", "lat": 54.917541666666665, "speed": 2.3561555555555556, "class": "TPV"} 
1381859902 {"track": 122.63, "lon": 12.507438333333333, "tag": "RMC", "mode": 1, "time": "2013-07-31T08:41:21Z", "lat": 54.917453333333334, "speed": 2.191533333333333, "class": "TPV"}  
1381859904 {"track": 125.89, "lon": 12.507555, "tag": "RMC", "mode": 1, "time": "2013-07-31T08:41:25Z", "lat": 54.91741666666667, "speed": 2.0320555555555555, "class": "TPV"}           
1381859906 {"track": 126.07, "lon": 12.507673333333333, "tag": "RMC", "mode": 1, "time": "2013-07-31T08:41:29Z", "lat": 54.91738, "speed": 2.2995666666666663, "class": "TPV"}           
1381859908 {"track": 117.65, "lon": 12.507796666666668, "tag": "RMC", "mode": 1, "time": "2013-07-31T08:41:33Z", "lat": 54.917341666666665, "speed": 2.2892777777777775, "class": "TPV"} 
1381859910 {"track": 126.59, "lon": 12.507911666666667, "tag": "RMC", "mode": 1, "time": "2013-07-31T08:41:37Z", "lat": 54.91730333333334, "speed": 2.119511111111111, "class": "TPV"}   
1381859913 {"track": 134.28, "lon": 12.50802, "tag": "RMC", "mode": 1, "time": "2013-07-31T08:41:41Z", "lat": 54.91726166666667, "speed": 2.119511111111111, "class": "TPV"}             
1381859915 {"track": 129.54, "lon": 12.508118333333334, "tag": "RMC", "mode": 1, "time": "2013-07-31T08:41:45Z", "lat": 54.91721166666667, "speed": 2.1555222222222223, "class": "TPV"}  
1381859917 {"track": 137.62, "lon": 12.508216666666666, "tag": "RMC", "mode": 1, "time": "2013-07-31T08:41:49Z", "lat": 54.91716, "speed": 2.242977777777778, "class": "TPV"}            
1381859919 {"track": 137.79, "lon": 12.508308333333334, "tag": "RMC", "mode": 1, "time": "2013-07-31T08:41:53Z", "lat": 54.91710333333333, "speed": 2.2275444444444443, "class": "TPV"}  
1381859921 {"track": 140.31, "lon": 12.508403333333334, "tag": "RMC", "mode": 1, "time": "2013-07-31T08:41:57Z", "lat": 54.91704333333333, "speed": 2.1503777777777775, "class": "TPV"}  
1381859925 {"track": 140.66, "lon": 12.508588333333334, "tag": "RMC", "mode": 1, "time": "2013-07-31T08:42:05Z", "lat": 54.916918333333335, "speed": 2.2841333333333336, "class": "TPV"} 
1381859927 {"track": 138.57, "lon": 12.508681666666666, "tag": "RMC", "mode": 1, "time": "2013-07-31T08:42:09Z", "lat": 54.916855, "speed": 2.387022222222222, "class": "TPV"}           
1381859929 {"track": 133.3, "lon": 12.508778333333334, "tag": "RMC", "mode": 1, "time": "2013-07-31T08:42:13Z", "lat": 54.91679333333333, "speed": 2.3510111111111116, "class": "TPV"}   
1381859931 {"track": 136.51, "lon": 12.508873333333334, "tag": "RMC", "mode": 1, "time": "2013-07-31T08:42:17Z", "lat": 54.91673, "speed": 2.335577777777778, "class": "TPV"}            
1381859933 {"track": 135.29, "lon": 12.508968333333334, "tag": "RMC", "mode": 1, "time": "2013-07-31T08:42:21Z", "lat": 54.916665, "speed": 2.4024555555555556, "class": "TPV"}          
1381859935 {"track": 141.03, "lon": 12.509061666666666, "tag": "RMC", "mode": 1, "time": "2013-07-31T08:42:25Z", "lat": 54.91659833333333, "speed": 2.2944222222222224, "class": "TPV"}  
1381859937 {"track": 143.91, "lon": 12.509158333333334, "tag": "RMC", "mode": 1, "time": "2013-07-31T08:42:29Z", "lat": 54.91652833333333, "speed": 2.3304333333333336, "class": "TPV"}  
1381859939 {"track": 133.98, "lon": 12.509256666666667, "tag": "RMC", "mode": 1, "time": "2013-07-31T08:42:33Z", "lat": 54.91646, "speed": 2.376733333333333, "class": "TPV"}            
1381859941 {"track": 134.22, "lon": 12.509365, "tag": "RMC", "mode": 1, "time": "2013-07-31T08:42:37Z", "lat": 54.91639166666667, "speed": 2.412744444444445, "class": "TPV"}            
1381859943 {"track": 142.74, "lon": 12.509456666666667, "tag": "RMC", "mode": 1, "time": "2013-07-31T08:42:41Z", "lat": 54.91632, "speed": 2.4641888888888888, "class": "TPV"}           
1381859947 {"track": 141.72, "lon": 12.509673333333334, "tag": "RMC", "mode": 1, "time": "2013-07-31T08:42:49Z", "lat": 54.91619333333333, "speed": 2.3407222222222224, "class": "TPV"}  
1381859949 {"track": 140.85, "lon": 12.509775, "tag": "RMC", "mode": 1, "time": "2013-07-31T08:42:53Z", "lat": 54.916131666666665, "speed": 2.5465, "class": "TPV"}                      
1381859951 {"track": 139.57, "lon": 12.509876666666667, "tag": "RMC", "mode": 1, "time": "2013-07-31T08:42:57Z", "lat": 54.916066666666666, "speed": 2.397311111111111, "class": "TPV"}  
1381859953 {"track": 137.39, "lon": 12.509973333333333, "tag": "RMC", "mode": 1, "time": "2013-07-31T08:43:01Z", "lat": 54.916003333333336, "speed": 2.335577777777778, "class": "TPV"}  
1381859955 {"track": 137.18, "lon": 12.510068333333333, "tag": "RMC", "mode": 1, "time": "2013-07-31T08:43:05Z", "lat": 54.91593833333334, "speed": 2.304711111111111, "class": "TPV"}   
1381859957 {"track": 128.39, "lon": 12.510165, "tag": "RMC", "mode": 1, "time": "2013-07-31T08:43:09Z", "lat": 54.91587333333333, "speed": 2.3304333333333336, "class": "TPV"}           
1381859959 {"track": 138.72, "lon": 12.510266666666666, "tag": "RMC", "mode": 1, "time": "2013-07-31T08:43:13Z", "lat": 54.91581, "speed": 2.5516444444444444, "class": "TPV"}           
1381859961 {"track": 138.83, "lon": 12.510368333333334, "tag": "RMC", "mode": 1, "time": "2013-07-31T08:43:17Z", "lat": 54.91575, "speed": 2.2326888888888887, "class": "TPV"}           
1381859963 {"track": 136.36, "lon": 12.510473333333334, "tag": "RMC", "mode": 1, "time": "2013-07-31T08:43:21Z", "lat": 54.91569166666667, "speed": 2.376733333333333, "class": "TPV"}   
1381859965 {"track": 132.11, "lon": 12.51058, "tag": "RMC", "mode": 1, "time": "2013-07-31T08:43:25Z", "lat": 54.915635, "speed": 2.4178888888888888, "class": "TPV"}                    
1381859969 {"track": 137.75, "lon": 12.5108, "tag": "RMC", "mode": 1, "time": "2013-07-31T08:43:33Z", "lat": 54.91551333333334, "speed": 2.664822222222222, "class": "TPV"}              
1381859971 {"track": 131.3, "lon": 12.510915, "tag": "RMC", "mode": 1, "time": "2013-07-31T08:43:37Z", "lat": 54.915443333333336, "speed": 2.747133333333333, "class": "TPV"}            
1381859973 {"track": 136.26, "lon": 12.51103, "tag": "RMC", "mode": 1, "time": "2013-07-31T08:43:41Z", "lat": 54.91536833333333, "speed": 2.788288888888889, "class": "TPV"}             
1381859975 {"track": 138.75, "lon": 12.51114, "tag": "RMC", "mode": 1, "time": "2013-07-31T08:43:45Z", "lat": 54.91529166666667, "speed": 2.803722222222222, "class": "TPV"}             
1381859977 {"track": 129.44, "lon": 12.511263333333334, "tag": "RMC", "mode": 1, "time": "2013-07-31T08:43:49Z", "lat": 54.915213333333334, "speed": 2.808866666666667, "class": "TPV"}  
1381859979 {"track": 129.63, "lon": 12.51139, "tag": "RMC", "mode": 1, "time": "2013-07-31T08:43:53Z", "lat": 54.915135, "speed": 3.081522222222222, "class": "TPV"}                     
1381859981 {"track": 139.56, "lon": 12.511506666666667, "tag": "RMC", "mode": 1, "time": "2013-07-31T08:43:57Z", "lat": 54.91505333333333, "speed": 2.855166666666667, "class": "TPV"}   
1381859983 {"track": 136.73, "lon": 12.511628333333334, "tag": "RMC", "mode": 1, "time": "2013-07-31T08:44:01Z", "lat": 54.91498, "speed": 2.7265555555555556, "class": "TPV"}           
1381859985 {"track": 130.41, "lon": 12.511756666666667, "tag": "RMC", "mode": 1, "time": "2013-07-31T08:44:05Z", "lat": 54.91490666666667, "speed": 3.0043555555555557, "class": "TPV"}  
1381859987 {"track": 123.27, "lon": 12.511885, "tag": "RMC", "mode": 1, "time": "2013-07-31T08:44:09Z", "lat": 54.914836666666666, "speed": 2.695688888888889, "class": "TPV"}           
1381859991 {"track": 135.15, "lon": 12.512151666666666, "tag": "RMC", "mode": 1, "time": "2013-07-31T08:44:17Z", "lat": 54.9147, "speed": 2.814011111111111, "class": "TPV"}             
1381859993 {"track": 133.46, "lon": 12.512283333333333, "tag": "RMC", "mode": 1, "time": "2013-07-31T08:44:21Z", "lat": 54.91463666666667, "speed": 2.942622222222222, "class": "TPV"}   
1381859995 {"track": 129.23, "lon": 12.512423333333333, "tag": "RMC", "mode": 1, "time": "2013-07-31T08:44:25Z", "lat": 54.91457166666667, "speed": 2.803722222222222, "class": "TPV"}   
1381859997 {"track": 128.36, "lon": 12.512553333333333, "tag": "RMC", "mode": 1, "time": "2013-07-31T08:44:29Z", "lat": 54.91451166666667, "speed": 2.587655555555556, "class": "TPV"}   
1381859999 {"track": 127.64, "lon": 12.512681666666667, "tag": "RMC", "mode": 1, "time": "2013-07-31T08:44:33Z", "lat": 54.91445, "speed": 2.690544444444445, "class": "TPV"}            
1381860001 {"track": 131.12, "lon": 12.512803333333334, "tag": "RMC", "mode": 1, "time": "2013-07-31T08:44:37Z", "lat": 54.914385, "speed": 2.654533333333333, "class": "TPV"}           
1381860003 {"track": 135.27, "lon": 12.51293, "tag": "RMC", "mode": 1, "time": "2013-07-31T08:44:41Z", "lat": 54.914320000000004, "speed": 2.7265555555555556, "class": "TPV"}           
1381860005 {"track": 135.45, "lon": 12.513053333333334, "tag": "RMC", "mode": 1, "time": "2013-07-31T08:44:45Z", "lat": 54.914251666666665, "speed": 2.9786333333333332, "class": "TPV"} 
1381860007 {"track": 125.0, "lon": 12.51318, "tag": "RMC", "mode": 1, "time": "2013-07-31T08:44:49Z", "lat": 54.914183333333334, "speed": 2.855166666666667, "class": "TPV"}             
1381860009 {"track": 129.92, "lon": 12.513313333333333, "tag": "RMC", "mode": 1, "time": "2013-07-31T08:44:53Z", "lat": 54.914115, "speed": 2.855166666666667, "class": "TPV"}           
1381860013 {"track": 128.8, "lon": 12.513573333333333, "tag": "RMC", "mode": 1, "time": "2013-07-31T08:45:01Z", "lat": 54.913985, "speed": 2.8706, "class": "TPV"}                       
1381860015 {"track": 121.69, "lon": 12.513705, "tag": "RMC", "mode": 1, "time": "2013-07-31T08:45:05Z", "lat": 54.91392333333334, "speed": 2.7934333333333328, "class": "TPV"}           
1381860017 {"track": 129.93, "lon": 12.513835, "tag": "RMC", "mode": 1, "time": "2013-07-31T08:45:09Z", "lat": 54.913855, "speed": 2.9117555555555557, "class": "TPV"}                   
1381860019 {"track": 130.08, "lon": 12.51397, "tag": "RMC", "mode": 1, "time": "2013-07-31T08:45:13Z", "lat": 54.91378666666667, "speed": 2.772855555555555, "class": "TPV"}             
1381860021 {"track": 132.6, "lon": 12.5141, "tag": "RMC", "mode": 1, "time": "2013-07-31T08:45:17Z", "lat": 54.91372, "speed": 2.695688888888889, "class": "TPV"}                        
1381860023 {"track": 128.69, "lon": 12.51423, "tag": "RMC", "mode": 1, "time": "2013-07-31T08:45:21Z", "lat": 54.91365166666667, "speed": 2.7677111111111112, "class": "TPV"}            
1381860025 {"track": 133.75, "lon": 12.514361666666666, "tag": "RMC", "mode": 1, "time": "2013-07-31T08:45:25Z", "lat": 54.913583333333335, "speed": 2.736844444444445, "class": "TPV"}  
1381860027 {"track": 130.22, "lon": 12.514496666666666, "tag": "RMC", "mode": 1, "time": "2013-07-31T08:45:29Z", "lat": 54.91351, "speed": 2.834588888888889, "class": "TPV"}            
1381860029 {"track": 128.31, "lon": 12.514633333333334, "tag": "RMC", "mode": 1, "time": "2013-07-31T08:45:33Z", "lat": 54.91343833333333, "speed": 3.0043555555555557, "class": "TPV"}  
1381860031 {"track": 135.29, "lon": 12.514726666666666, "tag": "RMC", "mode": 1, "time": "2013-07-31T08:45:36Z", "lat": 54.913385, "speed": 2.9734888888888893, "class": "TPV"}          
1381860035 {"track": 131.48, "lon": 12.514976666666666, "tag": "RMC", "mode": 1, "time": "2013-07-31T08:45:44Z", "lat": 54.913245, "speed": 2.695688888888889, "class": "TPV"}           
1381860037 {"track": 134.9, "lon": 12.515121666666667, "tag": "RMC", "mode": 1, "time": "2013-07-31T08:45:49Z", "lat": 54.913155, "speed": 2.644244444444444, "class": "TPV"}            
1381860039 {"track": 144.34, "lon": 12.515231666666667, "tag": "RMC", "mode": 1, "time": "2013-07-31T08:45:53Z", "lat": 54.913085, "speed": 2.5825111111111108, "class": "TPV"}          
1381860041 {"track": 135.72, "lon": 12.51534, "tag": "RMC", "mode": 1, "time": "2013-07-31T08:45:57Z", "lat": 54.91301333333333, "speed": 2.603088888888889, "class": "TPV"}             
1381860043 {"track": 135.46, "lon": 12.51543, "tag": "RMC", "mode": 1, "time": "2013-07-31T08:46:00Z", "lat": 54.912958333333336, "speed": 2.541355555555556, "class": "TPV"}            
1381860045 {"track": 132.7, "lon": 12.515548333333333, "tag": "RMC", "mode": 1, "time": "2013-07-31T08:46:04Z", "lat": 54.91289, "speed": 2.6391, "class": "TPV"}                        
1381860048 {"track": 131.25, "lon": 12.5157, "tag": "RMC", "mode": 1, "time": "2013-07-31T08:46:09Z", "lat": 54.91281166666667, "speed": 2.6339555555555556, "class": "TPV"}             
1381860050 {"track": 133.42, "lon": 12.515796666666667, "tag": "RMC", "mode": 1, "time": "2013-07-31T08:46:12Z", "lat": 54.91276333333333, "speed": 2.6339555555555556, "class": "TPV"}  
1381860052 {"track": 130.26, "lon": 12.51592, "tag": "RMC", "mode": 1, "time": "2013-07-31T08:46:16Z", "lat": 54.9127, "speed": 2.7265555555555556, "class": "TPV"}                      
1381860054 {"track": 130.89, "lon": 12.51608, "tag": "RMC", "mode": 1, "time": "2013-07-31T08:46:21Z", "lat": 54.912621666666666, "speed": 2.669966666666667, "class": "TPV"}            
1381860058 {"track": 139.75, "lon": 12.516343333333333, "tag": "RMC", "mode": 1, "time": "2013-07-31T08:46:29Z", "lat": 54.91249, "speed": 2.7831444444444444, "class": "TPV"}           
1381860060 {"track": 132.26, "lon": 12.516478333333334, "tag": "RMC", "mode": 1, "time": "2013-07-31T08:46:33Z", "lat": 54.91242166666667, "speed": 2.844877777777778, "class": "TPV"}   
1381860062 {"track": 138.69, "lon": 12.51662, "tag": "RMC", "mode": 1, "time": "2013-07-31T08:46:37Z", "lat": 54.912353333333336, "speed": 2.7316999999999996, "class": "TPV"}           
1381860064 {"track": 131.4, "lon": 12.516746666666666, "tag": "RMC", "mode": 1, "time": "2013-07-31T08:46:41Z", "lat": 54.912288333333336, "speed": 2.7780000000000005, "class": "TPV"}  
1381860066 {"track": 127.19, "lon": 12.516881666666666, "tag": "RMC", "mode": 1, "time": "2013-07-31T08:46:45Z", "lat": 54.91222166666667, "speed": 2.8860333333333337, "class": "TPV"}  
1381860068 {"track": 124.48, "lon": 12.517018333333333, "tag": "RMC", "mode": 1, "time": "2013-07-31T08:46:49Z", "lat": 54.91215833333333, "speed": 2.798577777777778, "class": "TPV"}   
1381860070 {"track": 121.63, "lon": 12.517155, "tag": "RMC", "mode": 1, "time": "2013-07-31T08:46:53Z", "lat": 54.91209833333333, "speed": 2.695688888888889, "class": "TPV"}            
1381860072 {"track": 119.49, "lon": 12.51729, "tag": "RMC", "mode": 1, "time": "2013-07-31T08:46:57Z", "lat": 54.912036666666665, "speed": 2.8191555555555556, "class": "TPV"}           
1381860074 {"track": 120.31, "lon": 12.517388333333333, "tag": "RMC", "mode": 1, "time": "2013-07-31T08:47:00Z", "lat": 54.91199, "speed": 2.736844444444445, "class": "TPV"}            
1381860076 {"track": 129.56, "lon": 12.517528333333333, "tag": "RMC", "mode": 1, "time": "2013-07-31T08:47:04Z", "lat": 54.911935, "speed": 2.7934333333333328, "class": "TPV"}          
1381860080 {"track": 119.64, "lon": 12.517806666666667, "tag": "RMC", "mode": 1, "time": "2013-07-31T08:47:12Z", "lat": 54.91184, "speed": 2.5104888888888888, "class": "TPV"}           
1381860082 {"track": 121.99, "lon": 12.51794, "tag": "RMC", "mode": 1, "time": "2013-07-31T08:47:16Z", "lat": 54.91179666666667, "speed": 2.520777777777778, "class": "TPV"}             
1381860084 {"track": 125.16, "lon": 12.518065, "tag": "RMC", "mode": 1, "time": "2013-07-31T08:47:20Z", "lat": 54.911746666666666, "speed": 2.5104888888888888, "class": "TPV"}          
1381860086 {"track": 129.09, "lon": 12.518181666666667, "tag": "RMC", "mode": 1, "time": "2013-07-31T08:47:24Z", "lat": 54.911696666666664, "speed": 2.577366666666667, "class": "TPV"}  
1381860088 {"track": 125.54, "lon": 12.51833, "tag": "RMC", "mode": 1, "time": "2013-07-31T08:47:29Z", "lat": 54.91162333333333, "speed": 2.1966777777777775, "class": "TPV"}            
1381860090 {"track": 140.04, "lon": 12.518446666666666, "tag": "RMC", "mode": 1, "time": "2013-07-31T08:47:33Z", "lat": 54.91157333333334, "speed": 2.3664444444444444, "class": "TPV"}  
1381860092 {"track": 134.41, "lon": 12.51856, "tag": "RMC", "mode": 1, "time": "2013-07-31T08:47:37Z", "lat": 54.9115, "speed": 2.520777777777778, "class": "TPV"}                       
1381860094 {"track": 137.65, "lon": 12.518671666666666, "tag": "RMC", "mode": 1, "time": "2013-07-31T08:47:41Z", "lat": 54.91142833333333, "speed": 2.4281777777777775, "class": "TPV"}  
1381860096 {"track": 142.46, "lon": 12.518778333333334, "tag": "RMC", "mode": 1, "time": "2013-07-31T08:47:45Z", "lat": 54.91135666666667, "speed": 2.371588888888889, "class": "TPV"}   
1381860098 {"track": 144.12, "lon": 12.518883333333333, "tag": "RMC", "mode": 1, "time": "2013-07-31T08:47:49Z", "lat": 54.911285, "speed": 2.423033333333333, "class": "TPV"}           
1381860102 {"track": 144.06, "lon": 12.519108333333334, "tag": "RMC", "mode": 1, "time": "2013-07-31T08:47:57Z", "lat": 54.91114, "speed": 2.5516444444444444, "class": "TPV"}           
1381860104 {"track": 143.5, "lon": 12.519218333333333, "tag": "RMC", "mode": 1, "time": "2013-07-31T08:48:01Z", "lat": 54.911065, "speed": 2.7677111111111112, "class": "TPV"}           
1381860106 {"track": 139.1, "lon": 12.519325, "tag": "RMC", "mode": 1, "time": "2013-07-31T08:48:05Z", "lat": 54.91099, "speed": 2.7265555555555556, "class": "TPV"}                     
1381860108 {"track": 136.52, "lon": 12.519425, "tag": "RMC", "mode": 1, "time": "2013-07-31T08:48:09Z", "lat": 54.91092, "speed": 2.3304333333333336, "class": "TPV"}                    
1381860110 {"track": 143.04, "lon": 12.519525, "tag": "RMC", "mode": 1, "time": "2013-07-31T08:48:13Z", "lat": 54.91084333333333, "speed": 2.5722222222222224, "class": "TPV"}           
1381860112 {"track": 139.92, "lon": 12.519601666666667, "tag": "RMC", "mode": 1, "time": "2013-07-31T08:48:16Z", "lat": 54.910783333333335, "speed": 2.6853999999999996, "class": "TPV"} 
1381860114 {"track": 145.9, "lon": 12.519731666666667, "tag": "RMC", "mode": 1, "time": "2013-07-31T08:48:21Z", "lat": 54.91067833333334, "speed": 2.695688888888889, "class": "TPV"}    
1381860116 {"track": 144.49, "lon": 12.519835, "tag": "RMC", "mode": 1, "time": "2013-07-31T08:48:25Z", "lat": 54.910595, "speed": 2.8808888888888884, "class": "TPV"}                   
1381860118 {"track": 144.78, "lon": 12.519915, "tag": "RMC", "mode": 1, "time": "2013-07-31T08:48:28Z", "lat": 54.91053, "speed": 2.772855555555555, "class": "TPV"}                     
1381860120 {"track": 138.28, "lon": 12.520026666666666, "tag": "RMC", "mode": 1, "time": "2013-07-31T08:48:32Z", "lat": 54.910446666666665, "speed": 2.9734888888888893, "class": "TPV"} 
1381860124 {"track": 130.66, "lon": 12.520283333333333, "tag": "RMC", "mode": 1, "time": "2013-07-31T08:48:40Z", "lat": 54.91029666666667, "speed": 2.860311111111111, "class": "TPV"}   
1381860126 {"track": 132.68, "lon": 12.520411666666666, "tag": "RMC", "mode": 1, "time": "2013-07-31T08:48:44Z", "lat": 54.910223333333334, "speed": 2.844877777777778, "class": "TPV"}  
1381860128 {"track": 138.73, "lon": 12.52056, "tag": "RMC", "mode": 1, "time": "2013-07-31T08:48:49Z", "lat": 54.91013, "speed": 2.844877777777778, "class": "TPV"}                      
1381860130 {"track": 136.92, "lon": 12.520655, "tag": "RMC", "mode": 1, "time": "2013-07-31T08:48:52Z", "lat": 54.91007333333334, "speed": 2.814011111111111, "class": "TPV"}            
1381860132 {"track": 142.2, "lon": 12.520775, "tag": "RMC", "mode": 1, "time": "2013-07-31T08:48:56Z", "lat": 54.909998333333334, "speed": 2.7677111111111112, "class": "TPV"}           
1381860134 {"track": 138.63, "lon": 12.520891666666667, "tag": "RMC", "mode": 1, "time": "2013-07-31T08:49:00Z", "lat": 54.90992, "speed": 2.9014666666666664, "class": "TPV"}           
1381860136 {"track": 142.42, "lon": 12.521, "tag": "RMC", "mode": 1, "time": "2013-07-31T08:49:04Z", "lat": 54.909841666666665, "speed": 2.675111111111111, "class": "TPV"}              
1381860138 {"track": 153.25, "lon": 12.5211, "tag": "RMC", "mode": 1, "time": "2013-07-31T08:49:08Z", "lat": 54.909755, "speed": 2.9374777777777776, "class": "TPV"}                     
1381860140 {"track": 153.82, "lon": 12.52119, "tag": "RMC", "mode": 1, "time": "2013-07-31T08:49:12Z", "lat": 54.909655, "speed": 3.2152777777777777, "class": "TPV"}                    
1381860142 {"track": 152.42, "lon": 12.52128, "tag": "RMC", "mode": 1, "time": "2013-07-31T08:49:16Z", "lat": 54.90955833333334, "speed": 3.1175333333333333, "class": "TPV"}            
1381860146 {"track": 159.23, "lon": 12.521431666666667, "tag": "RMC", "mode": 1, "time": "2013-07-31T08:49:24Z", "lat": 54.90936, "speed": 2.9580555555555557, "class": "TPV"}           
1381860148 {"track": 163.3, "lon": 12.521491666666666, "tag": "RMC", "mode": 1, "time": "2013-07-31T08:49:28Z", "lat": 54.909258333333334, "speed": 2.9169, "class": "TPV"}              
1381860150 {"track": 156.89, "lon": 12.521548333333334, "tag": "RMC", "mode": 1, "time": "2013-07-31T08:49:32Z", "lat": 54.909155, "speed": 2.947766666666667, "class": "TPV"}           
1381860152 {"track": 156.6, "lon": 12.521626666666666, "tag": "RMC", "mode": 1, "time": "2013-07-31T08:49:36Z", "lat": 54.909055, "speed": 2.942622222222222, "class": "TPV"}            
1381860154 {"track": 149.06, "lon": 12.52171, "tag": "RMC", "mode": 1, "time": "2013-07-31T08:49:40Z", "lat": 54.908953333333336, "speed": 2.9632, "class": "TPV"}                       
1381860156 {"track": 149.24, "lon": 12.521803333333333, "tag": "RMC", "mode": 1, "time": "2013-07-31T08:49:44Z", "lat": 54.908863333333336, "speed": 2.700833333333333, "class": "TPV"}  
1381860158 {"track": 143.26, "lon": 12.52189, "tag": "RMC", "mode": 1, "time": "2013-07-31T08:49:48Z", "lat": 54.90878166666667, "speed": 2.5928, "class": "TPV"}                        
1381860160 {"track": 140.26, "lon": 12.521991666666667, "tag": "RMC", "mode": 1, "time": "2013-07-31T08:49:52Z", "lat": 54.90871, "speed": 2.4075999999999995, "class": "TPV"}           
1381860162 {"track": 140.85, "lon": 12.522095, "tag": "RMC", "mode": 1, "time": "2013-07-31T08:49:56Z", "lat": 54.908638333333336, "speed": 2.525922222222222, "class": "TPV"}           
1381860164 {"track": 136.54, "lon": 12.522231666666666, "tag": "RMC", "mode": 1, "time": "2013-07-31T08:50:01Z", "lat": 54.908555, "speed": 2.515633333333333, "class": "TPV"}           
1381860168 {"track": 131.93, "lon": 12.522468333333332, "tag": "RMC", "mode": 1, "time": "2013-07-31T08:50:09Z", "lat": 54.90842166666667, "speed": 2.788288888888889, "class": "TPV"}   
1381860170 {"track": 131.05, "lon": 12.522598333333333, "tag": "RMC", "mode": 1, "time": "2013-07-31T08:50:13Z", "lat": 54.90835833333333, "speed": 2.7265555555555556, "class": "TPV"}  
1381860172 {"track": 129.19, "lon": 12.522725, "tag": "RMC", "mode": 1, "time": "2013-07-31T08:50:17Z", "lat": 54.908295, "speed": 2.814011111111111, "class": "TPV"}                    
1381860174 {"track": 122.06, "lon": 12.522856666666666, "tag": "RMC", "mode": 1, "time": "2013-07-31T08:50:21Z", "lat": 54.90823666666667, "speed": 2.6391, "class": "TPV"}              
1381860176 {"track": 124.38, "lon": 12.522988333333334, "tag": "RMC", "mode": 1, "time": "2013-07-31T08:50:25Z", "lat": 54.90817833333333, "speed": 2.6853999999999996, "class": "TPV"}  
1381860178 {"track": 116.85, "lon": 12.523118333333333, "tag": "RMC", "mode": 1, "time": "2013-07-31T08:50:29Z", "lat": 54.90812, "speed": 2.9632, "class": "TPV"}                       
1381860180 {"track": 130.73, "lon": 12.52321, "tag": "RMC", "mode": 1, "time": "2013-07-31T08:50:32Z", "lat": 54.908073333333334, "speed": 2.8243, "class": "TPV"}                       
1381860182 {"track": 123.35, "lon": 12.523348333333333, "tag": "RMC", "mode": 1, "time": "2013-07-31T08:50:36Z", "lat": 54.908015, "speed": 2.6236666666666664, "class": "TPV"}          
1381860184 {"track": 127.68, "lon": 12.523481666666667, "tag": "RMC", "mode": 1, "time": "2013-07-31T08:50:40Z", "lat": 54.90796, "speed": 3.0558, "class": "TPV"}                       
1381860186 {"track": 125.19, "lon": 12.523618333333333, "tag": "RMC", "mode": 1, "time": "2013-07-31T08:50:44Z", "lat": 54.90790166666667, "speed": 2.741988888888889, "class": "TPV"}   
1381860190 {"track": 121.75, "lon": 12.523908333333333, "tag": "RMC", "mode": 1, "time": "2013-07-31T08:50:53Z", "lat": 54.90777333333333, "speed": 2.5979444444444444, "class": "TPV"}  
1381860192 {"track": 134.6, "lon": 12.524035, "tag": "RMC", "mode": 1, "time": "2013-07-31T08:50:57Z", "lat": 54.90770833333333, "speed": 2.3510111111111116, "class": "TPV"}            
1381860194 {"track": 118.86, "lon": 12.524128333333334, "tag": "RMC", "mode": 1, "time": "2013-07-31T08:51:00Z", "lat": 54.907665, "speed": 2.484766666666667, "class": "TPV"}           
1381860196 {"track": 130.01, "lon": 12.524286666666667, "tag": "RMC", "mode": 1, "time": "2013-07-31T08:51:05Z", "lat": 54.907601666666665, "speed": 2.6082333333333336, "class": "TPV"} 
1381860198 {"track": 125.11, "lon": 12.524385, "tag": "RMC", "mode": 1, "time": "2013-07-31T08:51:08Z", "lat": 54.90756, "speed": 2.5002000000000004, "class": "TPV"}                    
1381860201 {"track": 126.22, "lon": 12.524513333333333, "tag": "RMC", "mode": 1, "time": "2013-07-31T08:51:12Z", "lat": 54.907505, "speed": 2.5516444444444444, "class": "TPV"}          
1381860203 {"track": 120.9, "lon": 12.524645, "tag": "RMC", "mode": 1, "time": "2013-07-31T08:51:16Z", "lat": 54.907446666666665, "speed": 2.8294444444444444, "class": "TPV"}           
1381860205 {"track": 120.12, "lon": 12.524775, "tag": "RMC", "mode": 1, "time": "2013-07-31T08:51:20Z", "lat": 54.90739333333333, "speed": 2.6133777777777776, "class": "TPV"}           
1381860207 {"track": 121.2, "lon": 12.524903333333333, "tag": "RMC", "mode": 1, "time": "2013-07-31T08:51:24Z", "lat": 54.907338333333335, "speed": 2.6133777777777776, "class": "TPV"}  
1381860209 {"track": 124.99, "lon": 12.525028333333333, "tag": "RMC", "mode": 1, "time": "2013-07-31T08:51:28Z", "lat": 54.90728166666667, "speed": 2.541355555555556, "class": "TPV"}   
1381860213 {"track": 127.24, "lon": 12.525281666666666, "tag": "RMC", "mode": 1, "time": "2013-07-31T08:51:36Z", "lat": 54.907165, "speed": 2.9117555555555557, "class": "TPV"}          
